header: 
  seq: 12
  stamp: 
    secs: 1661451402
    nsecs: 312818145
  frame_id: "imu_link"
vector: 
  x: 0.0322544127702713
  y: -0.3291281163692475
  z: 0.09957358241081238
---
header: 
  seq: 13
  stamp: 
    secs: 1661451402
    nsecs: 322276057
  frame_id: "imu_link"
vector: 
  x: 0.03172425180673599
  y: -0.3381490111351013
  z: 0.10150966793298723
---
header: 
  seq: 14
  stamp: 
    secs: 1661451402
    nsecs: 332912708
  frame_id: "imu_link"
vector: 
  x: 0.029489383101463318
  y: -0.3333980739116669
  z: 0.1032787784934044
---
header: 
  seq: 15
  stamp: 
    secs: 1661451402
    nsecs: 342595895
  frame_id: "imu_link"
vector: 
  x: 0.04343552887439728
  y: -0.33386787772178655
  z: 0.10455228388309479
---
header: 
  seq: 16
  stamp: 
    secs: 1661451402
    nsecs: 353100961
  frame_id: "imu_link"
vector: 
  x: 0.038759242743253715
  y: -0.32893049716949463
  z: 0.10807541012763977
---
header: 
  seq: 17
  stamp: 
    secs: 1661451402
    nsecs: 362876622
  frame_id: "imu_link"
vector: 
  x: 0.02844567596912384
  y: -0.31310382485389715
  z: 0.09723563492298126
---
header: 
  seq: 18
  stamp: 
    secs: 1661451402
    nsecs: 372412113
  frame_id: "imu_link"
vector: 
  x: 0.01000923290848732
  y: -0.31975674629211426
  z: 0.0876499190926552
---
header: 
  seq: 19
  stamp: 
    secs: 1661451402
    nsecs: 383000980
  frame_id: "imu_link"
vector: 
  x: 0.0186594445258379
  y: -0.32898271083831787
  z: 0.09240127354860307
---
header: 
  seq: 20
  stamp: 
    secs: 1661451402
    nsecs: 392425199
  frame_id: "imu_link"
vector: 
  x: 0.01655542105436325
  y: -0.3267302811145783
  z: 0.0902303010225296
---
header: 
  seq: 21
  stamp: 
    secs: 1661451402
    nsecs: 403118232
  frame_id: "imu_link"
vector: 
  x: 0.023308163508772854
  y: -0.32913932204246527
  z: 0.0928257778286934
---
header: 
  seq: 22
  stamp: 
    secs: 1661451402
    nsecs: 412889864
  frame_id: "imu_link"
vector: 
  x: 0.02267472818493843
  y: -0.3404424786567688
  z: 0.09475431591272356
---
header: 
  seq: 23
  stamp: 
    secs: 1661451402
    nsecs: 422532035
  frame_id: "imu_link"
vector: 
  x: 0.036916911602020264
  y: -0.3316751420497895
  z: 0.09802426397800446
---
header: 
  seq: 24
  stamp: 
    secs: 1661451402
    nsecs: 433195362
  frame_id: "imu_link"
vector: 
  x: 0.03880060091614724
  y: -0.3361016511917114
  z: 0.10215396434068681
---
header: 
  seq: 25
  stamp: 
    secs: 1661451402
    nsecs: 442769555
  frame_id: "imu_link"
vector: 
  x: 0.036538153886795044
  y: -0.3265699446201325
  z: 0.1078707054257393
---
header: 
  seq: 26
  stamp: 
    secs: 1661451402
    nsecs: 452528374
  frame_id: "imu_link"
vector: 
  x: 0.03921369835734368
  y: -0.32697263360023504
  z: 0.10218415409326555
---
header: 
  seq: 27
  stamp: 
    secs: 1661451402
    nsecs: 462287391
  frame_id: "imu_link"
vector: 
  x: 0.027915516868233684
  y: -0.322124719619751
  z: 0.0991717129945755
---
header: 
  seq: 28
  stamp: 
    secs: 1661451402
    nsecs: 473006492
  frame_id: "imu_link"
vector: 
  x: 0.026073191314935684
  y: -0.32486936450004583
  z: 0.08912058174610138
---
header: 
  seq: 29
  stamp: 
    secs: 1661451402
    nsecs: 482519032
  frame_id: "imu_link"
vector: 
  x: 0.021734297275543213
  y: -0.3178659677505493
  z: 0.08871871978044511
---
header: 
  seq: 30
  stamp: 
    secs: 1661451402
    nsecs: 492999468
  frame_id: "imu_link"
vector: 
  x: 0.02142447605729103
  y: -0.32471275329589844
  z: 0.08869607746601105
---
header: 
  seq: 31
  stamp: 
    secs: 1661451402
    nsecs: 502737893
  frame_id: "imu_link"
vector: 
  x: 0.03283971548080444
  y: -0.32966879010200506
  z: 0.08974224328994751
---
header: 
  seq: 32
  stamp: 
    secs: 1661451402
    nsecs: 512269052
  frame_id: "imu_link"
vector: 
  x: 0.029943838715553284
  y: -0.33144024014472967
  z: 0.09738751500844957
---
header: 
  seq: 33
  stamp: 
    secs: 1661451402
    nsecs: 522800692
  frame_id: "imu_link"
vector: 
  x: 0.027619481086730957
  y: -0.3313619196414948
  z: 0.0971752628684044
---
header: 
  seq: 34
  stamp: 
    secs: 1661451402
    nsecs: 532356433
  frame_id: "imu_link"
vector: 
  x: 0.02716502547264099
  y: -0.33331975340843206
  z: 0.10306653380393982
---
header: 
  seq: 35
  stamp: 
    secs: 1661451402
    nsecs: 543009776
  frame_id: "imu_link"
vector: 
  x: 0.02513670362532139
  y: -0.3240043222904206
  z: 0.10485073179006578
---
header: 
  seq: 36
  stamp: 
    secs: 1661451402
    nsecs: 552527511
  frame_id: "imu_link"
vector: 
  x: 0.03708210214972497
  y: -0.31993943452835083
  z: 0.10396080464124681
---
header: 
  seq: 37
  stamp: 
    secs: 1661451402
    nsecs: 562299643
  frame_id: "imu_link"
vector: 
  x: 0.03741949796676636
  y: -0.31787341833114624
  z: 0.10003580898046495
---
header: 
  seq: 38
  stamp: 
    secs: 1661451402
    nsecs: 573171349
  frame_id: "imu_link"
vector: 
  x: 0.019203387200832367
  y: -0.3223522007465363
  z: 0.08849138021469116
---
header: 
  seq: 39
  stamp: 
    secs: 1661451402
    nsecs: 582679774
  frame_id: "imu_link"
vector: 
  x: 0.0164659321308136
  y: -0.3314029574394226
  z: 0.08824894577264787
---
header: 
  seq: 40
  stamp: 
    secs: 1661451402
    nsecs: 592125497
  frame_id: "imu_link"
vector: 
  x: 0.021452050656080246
  y: -0.32949352264404297
  z: 0.08474844694137573
---
header: 
  seq: 41
  stamp: 
    secs: 1661451402
    nsecs: 602742184
  frame_id: "imu_link"
vector: 
  x: 0.018776506185531616
  y: -0.32909083366394043
  z: 0.0904350057244301
---
header: 
  seq: 42
  stamp: 
    secs: 1661451402
    nsecs: 612243794
  frame_id: "imu_link"
vector: 
  x: 0.027633268386125565
  y: -0.33375227451324463
  z: 0.09520144760608673
---
header: 
  seq: 43
  stamp: 
    secs: 1661451402
    nsecs: 622968768
  frame_id: "imu_link"
vector: 
  x: 0.030019540339708328
  y: -0.324377179145813
  z: 0.10134269297122955
---
header: 
  seq: 44
  stamp: 
    secs: 1661451402
    nsecs: 632488257
  frame_id: "imu_link"
vector: 
  x: 0.029269045218825344
  y: -0.3355722129344941
  z: 0.10523749887943268
---
header: 
  seq: 45
  stamp: 
    secs: 1661451402
    nsecs: 643084170
  frame_id: "imu_link"
vector: 
  x: 0.03643488138914108
  y: -0.3288522064685822
  z: 0.1078631579875946
---
header: 
  seq: 46
  stamp: 
    secs: 1661451402
    nsecs: 652757189
  frame_id: "imu_link"
vector: 
  x: 0.03456497937440872
  y: -0.32681602239608765
  z: 0.10175964981317522
---
header: 
  seq: 47
  stamp: 
    secs: 1661451402
    nsecs: 662532196
  frame_id: "imu_link"
vector: 
  x: 0.02813585475087166
  y: -0.31995061039924627
  z: 0.09721299260854722
---
header: 
  seq: 48
  stamp: 
    secs: 1661451402
    nsecs: 672341044
  frame_id: "imu_link"
vector: 
  x: 0.021617237478494644
  y: -0.3177578151226044
  z: 0.09068498760461809
---
header: 
  seq: 49
  stamp: 
    secs: 1661451402
    nsecs: 683052089
  frame_id: "imu_link"
vector: 
  x: 0.024086229503154755
  y: -0.3227250576019287
  z: 0.08498333394527435
---
header: 
  seq: 50
  stamp: 
    secs: 1661451402
    nsecs: 692643226
  frame_id: "imu_link"
vector: 
  x: 0.018879778683185577
  y: -0.3268085718154907
  z: 0.09044255316257477
---
header: 
  seq: 51
  stamp: 
    secs: 1661451402
    nsecs: 702303576
  frame_id: "imu_link"
vector: 
  x: 0.0253226961940527
  y: -0.3360643684864045
  z: 0.0930153876543045
---
header: 
  seq: 52
  stamp: 
    secs: 1661451402
    nsecs: 713179165
  frame_id: "imu_link"
vector: 
  x: 0.020763467997312546
  y: -0.33123514056205755
  z: 0.09457224607467651
---
header: 
  seq: 53
  stamp: 
    secs: 1661451402
    nsecs: 722981451
  frame_id: "imu_link"
vector: 
  x: 0.03921369835734368
  y: -0.32697263360023504
  z: 0.10218415409326555
---
header: 
  seq: 54
  stamp: 
    secs: 1661451402
    nsecs: 732628919
  frame_id: "imu_link"
vector: 
  x: 0.03437221795320511
  y: -0.3337709307670593
  z: 0.09977073967456818
---
header: 
  seq: 55
  stamp: 
    secs: 1661451402
    nsecs: 742269444
  frame_id: "imu_link"
vector: 
  x: 0.0361250564455986
  y: -0.3356989622116089
  z: 0.10784052312374115
---
header: 
  seq: 56
  stamp: 
    secs: 1661451402
    nsecs: 753140834
  frame_id: "imu_link"
vector: 
  x: 0.041303932666778564
  y: -0.3268347084522248
  z: 0.10632893443107605
---
header: 
  seq: 57
  stamp: 
    secs: 1661451402
    nsecs: 763212209
  frame_id: "imu_link"
vector: 
  x: 0.03313575312495232
  y: -0.32043159008026123
  z: 0.09173869341611864
---
header: 
  seq: 58
  stamp: 
    secs: 1661451402
    nsecs: 773103223
  frame_id: "imu_link"
vector: 
  x: 0.026265952736139297
  y: -0.3179144263267517
  z: 0.09110948443412781
---
header: 
  seq: 59
  stamp: 
    secs: 1661451402
    nsecs: 782861657
  frame_id: "imu_link"
vector: 
  x: 0.021555323153734207
  y: -0.32721126079559326
  z: 0.08475599437952043
---
header: 
  seq: 60
  stamp: 
    secs: 1661451402
    nsecs: 792770600
  frame_id: "imu_link"
vector: 
  x: 0.01676196977496147
  y: -0.3221657574176789
  z: 0.09024539589881897
---
header: 
  seq: 61
  stamp: 
    secs: 1661451402
    nsecs: 802432448
  frame_id: "imu_link"
vector: 
  x: 0.02099759131669998
  y: -0.33145138621330267
  z: 0.09063971042633057
---
header: 
  seq: 62
  stamp: 
    secs: 1661451402
    nsecs: 813115039
  frame_id: "imu_link"
vector: 
  x: 0.02542597241699696
  y: -0.33378210663795477
  z: 0.0930229350924492
---
header: 
  seq: 63
  stamp: 
    secs: 1661451402
    nsecs: 822929762
  frame_id: "imu_link"
vector: 
  x: 0.02962022833526135
  y: -0.33589658141136175
  z: 0.09933869540691376
---
header: 
  seq: 64
  stamp: 
    secs: 1661451402
    nsecs: 832651225
  frame_id: "imu_link"
vector: 
  x: 0.03404860943555832
  y: -0.3382273316383362
  z: 0.10172192007303239
---
header: 
  seq: 65
  stamp: 
    secs: 1661451402
    nsecs: 842417236
  frame_id: "imu_link"
vector: 
  x: 0.0361250564455986
  y: -0.3356989622116089
  z: 0.10784052312374115
---
header: 
  seq: 66
  stamp: 
    secs: 1661451402
    nsecs: 852397031
  frame_id: "imu_link"
vector: 
  x: 0.03422758728265762
  y: -0.32888203859329224
  z: 0.10568463802337646
---
header: 
  seq: 67
  stamp: 
    secs: 1661451402
    nsecs: 862368368
  frame_id: "imu_link"
vector: 
  x: 0.028356187045574188
  y: -0.3177764713764191
  z: 0.09525427222251892
---
header: 
  seq: 68
  stamp: 
    secs: 1661451402
    nsecs: 873274638
  frame_id: "imu_link"
vector: 
  x: 0.021734297275543213
  y: -0.3178659677505493
  z: 0.08871871978044511
---
header: 
  seq: 69
  stamp: 
    secs: 1661451402
    nsecs: 883174142
  frame_id: "imu_link"
vector: 
  x: 0.025852855294942856
  y: -0.32704347372055054
  z: 0.09107930213212968
---
header: 
  seq: 70
  stamp: 
    secs: 1661451402
    nsecs: 892670036
  frame_id: "imu_link"
vector: 
  x: 0.021348774433135986
  y: -0.3317757844924927
  z: 0.08474089950323106
---
header: 
  seq: 71
  stamp: 
    secs: 1661451402
    nsecs: 903200553
  frame_id: "imu_link"
vector: 
  x: 0.016438359394669536
  y: -0.32662215828895574
  z: 0.09219656884670258
---
header: 
  seq: 72
  stamp: 
    secs: 1661451402
    nsecs: 912672161
  frame_id: "imu_link"
vector: 
  x: 0.027750330045819286
  y: -0.3338603973388672
  z: 0.09323517978191376
---
header: 
  seq: 73
  stamp: 
    secs: 1661451402
    nsecs: 923200039
  frame_id: "imu_link"
vector: 
  x: 0.03147634118795395
  y: -0.3355423510074616
  z: 0.10741601884365082
---
header: 
  seq: 74
  stamp: 
    secs: 1661451402
    nsecs: 932611073
  frame_id: "imu_link"
vector: 
  x: 0.03435843065381051
  y: -0.33138054609298706
  z: 0.10174456238746643
---
header: 
  seq: 75
  stamp: 
    secs: 1661451402
    nsecs: 943198178
  frame_id: "imu_link"
vector: 
  x: 0.03911042585968972
  y: -0.32925489544868475
  z: 0.10217660665512085
---
header: 
  seq: 76
  stamp: 
    secs: 1661451402
    nsecs: 952979303
  frame_id: "imu_link"
vector: 
  x: 0.04362829029560089
  y: -0.3269129991531372
  z: 0.10654118657112122
---
header: 
  seq: 77
  stamp: 
    secs: 1661451402
    nsecs: 962933586
  frame_id: "imu_link"
vector: 
  x: 0.03034315072000027
  y: -0.31992077827453613
  z: 0.09939151257276536
---
header: 
  seq: 78
  stamp: 
    secs: 1661451402
    nsecs: 973031203
  frame_id: "imu_link"
vector: 
  x: 0.026162680238485336
  y: -0.3201966881752014
  z: 0.09110193699598314
---
header: 
  seq: 79
  stamp: 
    secs: 1661451402
    nsecs: 982837874
  frame_id: "imu_link"
vector: 
  x: 0.02363177388906479
  y: -0.3246829211711884
  z: 0.09087459743022919
---
header: 
  seq: 80
  stamp: 
    secs: 1661451402
    nsecs: 992560599
  frame_id: "imu_link"
vector: 
  x: 0.021438261494040493
  y: -0.3271031379699707
  z: 0.0867222622036934
---
header: 
  seq: 81
  stamp: 
    secs: 1661451403
    nsecs:   2575123
  frame_id: "imu_link"
vector: 
  x: 0.02829427272081375
  y: -0.32722991704940796
  z: 0.08932528644800188
---
header: 
  seq: 82
  stamp: 
    secs: 1661451403
    nsecs:  12492832
  frame_id: "imu_link"
vector: 
  x: 0.02776411548256874
  y: -0.33625078201293945
  z: 0.0912613719701767
---
header: 
  seq: 83
  stamp: 
    secs: 1661451403
    nsecs:  22845346
  frame_id: "imu_link"
vector: 
  x: 0.032281983643770225
  y: -0.333908885717392
  z: 0.09562595188617706
---
header: 
  seq: 84
  stamp: 
    secs: 1661451403
    nsecs:  33005903
  frame_id: "imu_link"
vector: 
  x: 0.029489383101463318
  y: -0.3333980739116669
  z: 0.1032787784934044
---
header: 
  seq: 85
  stamp: 
    secs: 1661451403
    nsecs:  42498821
  frame_id: "imu_link"
vector: 
  x: 0.022488735616207123
  y: -0.3283824026584626
  z: 0.1065896600484848
---
header: 
  seq: 86
  stamp: 
    secs: 1661451403
    nsecs:  53100338
  frame_id: "imu_link"
vector: 
  x: 0.0369788259267807
  y: -0.32222169637680054
  z: 0.10395325720310211
---
header: 
  seq: 87
  stamp: 
    secs: 1661451403
    nsecs:  62952179
  frame_id: "imu_link"
vector: 
  x: 0.030019540339708328
  y: -0.324377179145813
  z: 0.10134269297122955
---
header: 
  seq: 88
  stamp: 
    secs: 1661451403
    nsecs:  72885506
  frame_id: "imu_link"
vector: 
  x: 0.0280325785279274
  y: -0.322232872247696
  z: 0.09720544517040253
---
header: 
  seq: 89
  stamp: 
    secs: 1661451403
    nsecs:  82656995
  frame_id: "imu_link"
vector: 
  x: 0.028617883101105693
  y: -0.3227735161781311
  z: 0.08737409859895708
---
header: 
  seq: 90
  stamp: 
    secs: 1661451403
    nsecs:  92317458
  frame_id: "imu_link"
vector: 
  x: 0.022970765829086304
  y: -0.33120533823966986
  z: 0.09675076603889465
---
header: 
  seq: 91
  stamp: 
    secs: 1661451403
    nsecs: 102996699
  frame_id: "imu_link"
vector: 
  x: 0.02336331084370613
  y: -0.33870086073875433
  z: 0.08493050932884216
---
header: 
  seq: 92
  stamp: 
    secs: 1661451403
    nsecs: 112573221
  frame_id: "imu_link"
vector: 
  x: 0.027867391705513
  y: -0.33396852016448975
  z: 0.09126891195774078
---
header: 
  seq: 93
  stamp: 
    secs: 1661451403
    nsecs: 122879428
  frame_id: "imu_link"
vector: 
  x: 0.02991626411676407
  y: -0.3266594409942627
  z: 0.10133515298366547
---
header: 
  seq: 94
  stamp: 
    secs: 1661451403
    nsecs: 132455866
  frame_id: "imu_link"
vector: 
  x: 0.03655194491147995
  y: -0.3289603590965271
  z: 0.10589689016342163
---
header: 
  seq: 95
  stamp: 
    secs: 1661451403
    nsecs: 142963128
  frame_id: "imu_link"
vector: 
  x: 0.03664143010973931
  y: -0.3242876827716828
  z: 0.10787825286388397
---
header: 
  seq: 96
  stamp: 
    secs: 1661451403
    nsecs: 152417784
  frame_id: "imu_link"
vector: 
  x: 0.03200650215148926
  y: -0.3265214860439301
  z: 0.105479933321476
---
header: 
  seq: 97
  stamp: 
    secs: 1661451403
    nsecs: 163190396
  frame_id: "imu_link"
vector: 
  x: 0.030095240101218227
  y: -0.31731414794921875
  z: 0.10529787093400957
---
header: 
  seq: 98
  stamp: 
    secs: 1661451403
    nsecs: 172976662
  frame_id: "imu_link"
vector: 
  x: 0.03070811927318573
  y: -0.3226355612277985
  z: 0.09151889383792877
---
header: 
  seq: 99
  stamp: 
    secs: 1661451403
    nsecs: 182747910
  frame_id: "imu_link"
vector: 
  x: 0.01667248085141182
  y: -0.3268384337425232
  z: 0.08826403319835663
---
header: 
  seq: 100
  stamp: 
    secs: 1661451403
    nsecs: 193318872
  frame_id: "imu_link"
vector: 
  x: 0.023776408284902573
  y: -0.32957184314727783
  z: 0.0849606990814209
---
header: 
  seq: 101
  stamp: 
    secs: 1661451403
    nsecs: 203213586
  frame_id: "imu_link"
vector: 
  x: 0.0254121832549572
  y: -0.33139175176620483
  z: 0.09499675035476685
---
header: 
  seq: 102
  stamp: 
    secs: 1661451403
    nsecs: 212938448
  frame_id: "imu_link"
vector: 
  x: 0.013921242207288742
  y: -0.3334987163543701
  z: 0.08999541401863098
---
header: 
  seq: 103
  stamp: 
    secs: 1661451403
    nsecs: 222757514
  frame_id: "imu_link"
vector: 
  x: 0.02993005327880383
  y: -0.32904982566833496
  z: 0.09936133027076721
---
header: 
  seq: 104
  stamp: 
    secs: 1661451403
    nsecs: 232683858
  frame_id: "imu_link"
vector: 
  x: 0.03415188193321228
  y: -0.3359450697898865
  z: 0.10172946751117706
---
header: 
  seq: 105
  stamp: 
    secs: 1661451403
    nsecs: 242446466
  frame_id: "imu_link"
vector: 
  x: 0.03864218294620514
  y: -0.32882237434387207
  z: 0.11004167795181274
---
header: 
  seq: 106
  stamp: 
    secs: 1661451403
    nsecs: 252466120
  frame_id: "imu_link"
vector: 
  x: 0.041303932666778564
  y: -0.3268347084522248
  z: 0.10632893443107605
---
header: 
  seq: 107
  stamp: 
    secs: 1661451403
    nsecs: 262436149
  frame_id: "imu_link"
vector: 
  x: 0.027708968147635463
  y: -0.3266892433166504
  z: 0.09915662556886674
---
header: 
  seq: 108
  stamp: 
    secs: 1661451403
    nsecs: 273218480
  frame_id: "imu_link"
vector: 
  x: 0.026045618578791622
  y: -0.32008856534957886
  z: 0.09306820482015611
---
header: 
  seq: 109
  stamp: 
    secs: 1661451403
    nsecs: 282596801
  frame_id: "imu_link"
vector: 
  x: 0.014231063425540924
  y: -0.32665196061134344
  z: 0.09001804888248444
---
header: 
  seq: 110
  stamp: 
    secs: 1661451403
    nsecs: 293215441
  frame_id: "imu_link"
vector: 
  x: 0.016748184338212017
  y: -0.3197753727436066
  z: 0.09221920371055603
---
header: 
  seq: 111
  stamp: 
    secs: 1661451403
    nsecs: 302724816
  frame_id: "imu_link"
vector: 
  x: 0.025660093873739243
  y: -0.3339983820915222
  z: 0.08909039944410325
---
header: 
  seq: 112
  stamp: 
    secs: 1661451403
    nsecs: 313198155
  frame_id: "imu_link"
vector: 
  x: 0.030191749334335327
  y: -0.3340468406677246
  z: 0.09148116409778595
---
header: 
  seq: 113
  stamp: 
    secs: 1661451403
    nsecs: 322770132
  frame_id: "imu_link"
vector: 
  x: 0.027309659868478775
  y: -0.3382086753845215
  z: 0.09715262800455095
---
header: 
  seq: 114
  stamp: 
    secs: 1661451403
    nsecs: 332295654
  frame_id: "imu_link"
vector: 
  x: 0.03415188193321228
  y: -0.3359450697898865
  z: 0.10172946751117706
---
header: 
  seq: 115
  stamp: 
    secs: 1661451403
    nsecs: 342904875
  frame_id: "imu_link"
vector: 
  x: 0.03611127287149429
  y: -0.3333085775375366
  z: 0.10981433093547821
---
header: 
  seq: 116
  stamp: 
    secs: 1661451403
    nsecs: 352848306
  frame_id: "imu_link"
vector: 
  x: 0.03911042585968972
  y: -0.32925489544868475
  z: 0.10217660665512085
---
header: 
  seq: 117
  stamp: 
    secs: 1661451403
    nsecs: 362345357
  frame_id: "imu_link"
vector: 
  x: 0.02579770796000958
  y: -0.31748190522193914
  z: 0.0989745557308197
---
header: 
  seq: 118
  stamp: 
    secs: 1661451403
    nsecs: 373021023
  frame_id: "imu_link"
vector: 
  x: 0.023500923067331314
  y: -0.3221844136714936
  z: 0.09481468051671983
---
header: 
  seq: 119
  stamp: 
    secs: 1661451403
    nsecs: 382537546
  frame_id: "imu_link"
vector: 
  x: 0.01645214855670929
  y: -0.329012542963028
  z: 0.09022275358438493
---
header: 
  seq: 120
  stamp: 
    secs: 1661451403
    nsecs: 393072114
  frame_id: "imu_link"
vector: 
  x: 0.021438261494040493
  y: -0.3271031379699707
  z: 0.0867222622036934
---
header: 
  seq: 121
  stamp: 
    secs: 1661451403
    nsecs: 402860088
  frame_id: "imu_link"
vector: 
  x: 0.02101137861609459
  y: -0.33384177088737493
  z: 0.08866589516401292
---
header: 
  seq: 122
  stamp: 
    secs: 1661451403
    nsecs: 412423593
  frame_id: "imu_link"
vector: 
  x: 0.025439757853746414
  y: -0.33617249131202703
  z: 0.09104911983013153
---
header: 
  seq: 123
  stamp: 
    secs: 1661451403
    nsecs: 423009872
  frame_id: "imu_link"
vector: 
  x: 0.022502521052956585
  y: -0.3307728171348572
  z: 0.10461584478616716
---
header: 
  seq: 124
  stamp: 
    secs: 1661451403
    nsecs: 432627770
  frame_id: "imu_link"
vector: 
  x: 0.024530842900276184
  y: -0.34008824825286865
  z: 0.10283163934946062
---
header: 
  seq: 125
  stamp: 
    secs: 1661451403
    nsecs: 442206795
  frame_id: "imu_link"
vector: 
  x: 0.03622833266854287
  y: -0.3334167003631592
  z: 0.10784806311130524
---
header: 
  seq: 126
  stamp: 
    secs: 1661451403
    nsecs: 453134055
  frame_id: "imu_link"
vector: 
  x: 0.03475774452090264
  y: -0.31986111402511597
  z: 0.10374855250120164
---
header: 
  seq: 127
  stamp: 
    secs: 1661451403
    nsecs: 462837458
  frame_id: "imu_link"
vector: 
  x: 0.032433386892080314
  y: -0.31978282332420355
  z: 0.10353630781173706
---
header: 
  seq: 128
  stamp: 
    secs: 1661451403
    nsecs: 472415893
  frame_id: "imu_link"
vector: 
  x: 0.033239025622606284
  y: -0.3181493282318115
  z: 0.0917462408542633
---
header: 
  seq: 129
  stamp: 
    secs: 1661451403
    nsecs: 483107219
  frame_id: "imu_link"
vector: 
  x: 0.01932044886052609
  y: -0.32246032357215887
  z: 0.086525097489357
---
header: 
  seq: 130
  stamp: 
    secs: 1661451403
    nsecs: 492658114
  frame_id: "imu_link"
vector: 
  x: 0.02376261912286282
  y: -0.32718145847320557
  z: 0.08693450689315796
---
header: 
  seq: 131
  stamp: 
    secs: 1661451403
    nsecs: 502365030
  frame_id: "imu_link"
vector: 
  x: 0.025129934772849086
  y: -0.34301927685737615
  z: 0.09102648496627808
---
header: 
  seq: 132
  stamp: 
    secs: 1661451403
    nsecs: 513128014
  frame_id: "imu_link"
vector: 
  x: 0.030281236395239833
  y: -0.3293742239475251
  z: 0.09346252679824829
---
header: 
  seq: 133
  stamp: 
    secs: 1661451403
    nsecs: 522648447
  frame_id: "imu_link"
vector: 
  x: 0.03171046450734139
  y: -0.33575862646102905
  z: 0.10348348319530487
---
header: 
  seq: 134
  stamp: 
    secs: 1661451403
    nsecs: 533243900
  frame_id: "imu_link"
vector: 
  x: 0.029358532279729843
  y: -0.3308995664119721
  z: 0.10721886157989502
---
header: 
  seq: 135
  stamp: 
    secs: 1661451403
    nsecs: 542855787
  frame_id: "imu_link"
vector: 
  x: 0.027020391076803207
  y: -0.328430861234665
  z: 0.10898042470216752
---
header: 
  seq: 136
  stamp: 
    secs: 1661451403
    nsecs: 552529874
  frame_id: "imu_link"
vector: 
  x: 0.03687555342912674
  y: -0.32450395822525024
  z: 0.10394571721553802
---
header: 
  seq: 137
  stamp: 
    secs: 1661451403
    nsecs: 562452469
  frame_id: "imu_link"
vector: 
  x: 0.03531547635793686
  y: -0.31562098860740667
  z: 0.09786483645439148
---
header: 
  seq: 138
  stamp: 
    secs: 1661451403
    nsecs: 572614833
  frame_id: "imu_link"
vector: 
  x: 0.028693586587905884
  y: -0.31571045517921453
  z: 0.09132928401231767
---
header: 
  seq: 139
  stamp: 
    secs: 1661451403
    nsecs: 582354695
  frame_id: "imu_link"
vector: 
  x: 0.018983054906129837
  y: -0.324526309967041
  z: 0.09045010060071947
---
header: 
  seq: 140
  stamp: 
    secs: 1661451403
    nsecs: 593017889
  frame_id: "imu_link"
vector: 
  x: 0.023514712229371074
  y: -0.32457479834556585
  z: 0.09284086525440216
---
header: 
  seq: 141
  stamp: 
    secs: 1661451403
    nsecs: 602557680
  frame_id: "imu_link"
vector: 
  x: 0.02542597241699696
  y: -0.33378210663795477
  z: 0.0930229350924492
---
header: 
  seq: 142
  stamp: 
    secs: 1661451403
    nsecs: 613130357
  frame_id: "imu_link"
vector: 
  x: 0.027426719665527344
  y: -0.33831679821014404
  z: 0.09518636018037797
---
header: 
  seq: 143
  stamp: 
    secs: 1661451403
    nsecs: 622602889
  frame_id: "imu_link"
vector: 
  x: 0.03415188193321228
  y: -0.3359450697898865
  z: 0.10172946751117706
---
header: 
  seq: 144
  stamp: 
    secs: 1661451403
    nsecs: 633194086
  frame_id: "imu_link"
vector: 
  x: 0.03179994970560074
  y: -0.3310860097408295
  z: 0.10546484589576721
---
header: 
  seq: 145
  stamp: 
    secs: 1661451403
    nsecs: 642931178
  frame_id: "imu_link"
vector: 
  x: 0.036304034292697906
  y: -0.3263536989688874
  z: 0.11180324852466583
---
header: 
  seq: 146
  stamp: 
    secs: 1661451403
    nsecs: 652859565
  frame_id: "imu_link"
vector: 
  x: 0.04118687286973
  y: -0.3267265558242798
  z: 0.10829520225524902
---
header: 
  seq: 147
  stamp: 
    secs: 1661451403
    nsecs: 662566019
  frame_id: "imu_link"
vector: 
  x: 0.030095240101218227
  y: -0.31731414794921875
  z: 0.10529787093400957
---
header: 
  seq: 148
  stamp: 
    secs: 1661451403
    nsecs: 672487334
  frame_id: "imu_link"
vector: 
  x: 0.026265952736139297
  y: -0.3179144263267517
  z: 0.09110948443412781
---
header: 
  seq: 149
  stamp: 
    secs: 1661451403
    nsecs: 683444686
  frame_id: "imu_link"
vector: 
  x: 0.021410688757896423
  y: -0.32232233881950384
  z: 0.09066989272832872
---
header: 
  seq: 150
  stamp: 
    secs: 1661451403
    nsecs: 693813901
  frame_id: "imu_link"
vector: 
  x: 0.021307416260242462
  y: -0.32460460066795355
  z: 0.09066234529018402
---
header: 
  seq: 151
  stamp: 
    secs: 1661451403
    nsecs: 703030597
  frame_id: "imu_link"
vector: 
  x: 0.027867391705513
  y: -0.33396852016448975
  z: 0.09126891195774078
---
header: 
  seq: 152
  stamp: 
    secs: 1661451403
    nsecs: 713952953
  frame_id: "imu_link"
vector: 
  x: 0.023335736244916916
  y: -0.3339200913906098
  z: 0.08887814730405809
---
header: 
  seq: 153
  stamp: 
    secs: 1661451403
    nsecs: 723422516
  frame_id: "imu_link"
vector: 
  x: 0.036593303084373474
  y: -0.33613148331642156
  z: 0.09997544437646867
---
header: 
  seq: 154
  stamp: 
    secs: 1661451403
    nsecs: 733309293
  frame_id: "imu_link"
vector: 
  x: 0.03137306869029999
  y: -0.3378246128559113
  z: 0.10740847140550615
---
header: 
  seq: 155
  stamp: 
    secs: 1661451403
    nsecs: 743447477
  frame_id: "imu_link"
vector: 
  x: 0.03656572848558426
  y: -0.33135074377059937
  z: 0.10392307490110399
---
header: 
  seq: 156
  stamp: 
    secs: 1661451403
    nsecs: 753409786
  frame_id: "imu_link"
vector: 
  x: 0.0412006601691246
  y: -0.3291169703006745
  z: 0.10632139444351196
---
header: 
  seq: 157
  stamp: 
    secs: 1661451403
    nsecs: 763491832
  frame_id: "imu_link"
vector: 
  x: 0.03234389796853066
  y: -0.3244554698467255
  z: 0.10155494511127472
---
header: 
  seq: 158
  stamp: 
    secs: 1661451403
    nsecs: 772422137
  frame_id: "imu_link"
vector: 
  x: 0.026265952736139297
  y: -0.3179144263267517
  z: 0.09110948443412781
---
header: 
  seq: 159
  stamp: 
    secs: 1661451403
    nsecs: 783319909
  frame_id: "imu_link"
vector: 
  x: 0.016541635617613796
  y: -0.32433989644050604
  z: 0.09220411628484727
---
header: 
  seq: 160
  stamp: 
    secs: 1661451403
    nsecs: 793210693
  frame_id: "imu_link"
vector: 
  x: 0.01499534398317337
  y: -0.3178473114967346
  z: 0.08414942771196367
---
header: 
  seq: 161
  stamp: 
    secs: 1661451403
    nsecs: 802563278
  frame_id: "imu_link"
vector: 
  x: 0.02776411548256874
  y: -0.33625078201293945
  z: 0.0912613719701767
---
header: 
  seq: 162
  stamp: 
    secs: 1661451403
    nsecs: 812619141
  frame_id: "imu_link"
vector: 
  x: 0.025350268930196762
  y: -0.34084516763687134
  z: 0.08906775712966919
---
header: 
  seq: 163
  stamp: 
    secs: 1661451403
    nsecs: 822421253
  frame_id: "imu_link"
vector: 
  x: 0.03868354111909866
  y: -0.33599352836608887
  z: 0.10412023216485979
---
header: 
  seq: 164
  stamp: 
    secs: 1661451403
    nsecs: 833388374
  frame_id: "imu_link"
vector: 
  x: 0.0364624559879303
  y: -0.33363297581672674
  z: 0.10391552746295929
---
header: 
  seq: 165
  stamp: 
    secs: 1661451403
    nsecs: 843302578
  frame_id: "imu_link"
vector: 
  x: 0.03389018774032593
  y: -0.3309480249881745
  z: 0.10960963368415833
---
header: 
  seq: 166
  stamp: 
    secs: 1661451403
    nsecs: 853324546
  frame_id: "imu_link"
vector: 
  x: 0.036524370312690735
  y: -0.32417955994606024
  z: 0.10984452068805695
---
header: 
  seq: 167
  stamp: 
    secs: 1661451403
    nsecs: 865387125
  frame_id: "imu_link"
vector: 
  x: 0.032874055206775665
  y: -0.31543454527854925
  z: 0.09961885213851929
---
header: 
  seq: 168
  stamp: 
    secs: 1661451403
    nsecs: 873134243
  frame_id: "imu_link"
vector: 
  x: 0.02139690332114697
  y: -0.3199319541454316
  z: 0.09264370799064636
---
header: 
  seq: 169
  stamp: 
    secs: 1661451403
    nsecs: 882825051
  frame_id: "imu_link"
vector: 
  x: 0.023748833686113358
  y: -0.3247910737991333
  z: 0.08890832960605621
---
header: 
  seq: 170
  stamp: 
    secs: 1661451403
    nsecs: 892518569
  frame_id: "imu_link"
vector: 
  x: 0.014596034772694113
  y: -0.32936677336692816
  z: 0.08214543014764787
---
header: 
  seq: 171
  stamp: 
    secs: 1661451403
    nsecs: 902299674
  frame_id: "imu_link"
vector: 
  x: 0.02352849766612053
  y: -0.3269651830196381
  z: 0.09086704999208452
---
header: 
  seq: 172
  stamp: 
    secs: 1661451403
    nsecs: 912977230
  frame_id: "imu_link"
vector: 
  x: 0.025308910757303238
  y: -0.3336739838123322
  z: 0.09498920291662218
---
header: 
  seq: 173
  stamp: 
    secs: 1661451403
    nsecs: 922500975
  frame_id: "imu_link"
vector: 
  x: 0.03239904344081879
  y: -0.3340170085430146
  z: 0.09365968406200409
---
header: 
  seq: 174
  stamp: 
    secs: 1661451403
    nsecs: 933237561
  frame_id: "imu_link"
vector: 
  x: 0.031827524304389954
  y: -0.3358667492866516
  z: 0.1015172153711319
---
header: 
  seq: 175
  stamp: 
    secs: 1661451403
    nsecs: 942835814
  frame_id: "imu_link"
vector: 
  x: 0.04339416697621346
  y: -0.32669672369956976
  z: 0.11047372221946716
---
header: 
  seq: 176
  stamp: 
    secs: 1661451403
    nsecs: 952422093
  frame_id: "imu_link"
vector: 
  x: 0.0345236212015152
  y: -0.3196448385715485
  z: 0.10768108814954759
---
header: 
  seq: 177
  stamp: 
    secs: 1661451403
    nsecs: 963069693
  frame_id: "imu_link"
vector: 
  x: 0.034964293241500854
  y: -0.31529659032821655
  z: 0.10376364737749101
---
header: 
  seq: 178
  stamp: 
    secs: 1661451403
    nsecs: 972555650
  frame_id: "imu_link"
vector: 
  x: 0.023914020508527756
  y: -0.31305536627769476
  z: 0.09484486281871796
---
header: 
  seq: 179
  stamp: 
    secs: 1661451403
    nsecs: 983147093
  frame_id: "imu_link"
vector: 
  x: 0.018528595566749573
  y: -0.32648420333862305
  z: 0.09634135663509369
---
header: 
  seq: 180
  stamp: 
    secs: 1661451403
    nsecs: 992644734
  frame_id: "imu_link"
vector: 
  x: 0.021541537716984752
  y: -0.324820876121521
  z: 0.08672980219125749
---
header: 
  seq: 181
  stamp: 
    secs: 1661451404
    nsecs:   2348681
  frame_id: "imu_link"
vector: 
  x: 0.023425225168466568
  y: -0.3292474448680878
  z: 0.09085951000452043
---
header: 
  seq: 182
  stamp: 
    secs: 1661451404
    nsecs:  13015877
  frame_id: "imu_link"
vector: 
  x: 0.029709715396165848
  y: -0.3312239646911621
  z: 0.1013200581073761
---
header: 
  seq: 183
  stamp: 
    secs: 1661451404
    nsecs:  22487661
  frame_id: "imu_link"
vector: 
  x: 0.029358532279729843
  y: -0.3308995664119721
  z: 0.10721886157989502
---
header: 
  seq: 184
  stamp: 
    secs: 1661451404
    nsecs:  33084820
  frame_id: "imu_link"
vector: 
  x: 0.029565081000328064
  y: -0.3263350427150727
  z: 0.10723395645618439
---
header: 
  seq: 185
  stamp: 
    secs: 1661451404
    nsecs:  42638519
  frame_id: "imu_link"
vector: 
  x: 0.027109878137707714
  y: -0.323758214712143
  z: 0.11096179485321045
---
header: 
  seq: 186
  stamp: 
    secs: 1661451404
    nsecs:  53733282
  frame_id: "imu_link"
vector: 
  x: 0.03428950160741806
  y: -0.3194285929203034
  z: 0.11161363124847412
---
header: 
  seq: 187
  stamp: 
    secs: 1661451404
    nsecs:  62410955
  frame_id: "imu_link"
vector: 
  x: 0.023741815239191055
  y: -0.30338570475578314
  z: 0.10470639169216156
---
header: 
  seq: 188
  stamp: 
    secs: 1661451404
    nsecs:  73263920
  frame_id: "imu_link"
vector: 
  x: 0.026018045842647552
  y: -0.3153077960014343
  z: 0.09701583534479143
---
header: 
  seq: 189
  stamp: 
    secs: 1661451404
    nsecs:  82961784
  frame_id: "imu_link"
vector: 
  x: 0.02582528069615364
  y: -0.322262704372406
  z: 0.095026932656765
---
header: 
  seq: 190
  stamp: 
    secs: 1661451404
    nsecs:  92562995
  frame_id: "imu_link"
vector: 
  x: 0.018969265744090084
  y: -0.32213592529296875
  z: 0.09242391586303711
---
header: 
  seq: 191
  stamp: 
    secs: 1661451404
    nsecs: 103230005
  frame_id: "imu_link"
vector: 
  x: 0.023397650569677353
  y: -0.3244666755199433
  z: 0.09480713307857513
---
header: 
  seq: 192
  stamp: 
    secs: 1661451404
    nsecs: 112748149
  frame_id: "imu_link"
vector: 
  x: 0.020763467997312546
  y: -0.33123514056205755
  z: 0.09457224607467651
---
header: 
  seq: 193
  stamp: 
    secs: 1661451404
    nsecs: 123361146
  frame_id: "imu_link"
vector: 
  x: 0.027371574193239212
  y: -0.328755259513855
  z: 0.1030816212296486
---
header: 
  seq: 194
  stamp: 
    secs: 1661451404
    nsecs: 132989019
  frame_id: "imu_link"
vector: 
  x: 0.0340072475373745
  y: -0.33105614781379705
  z: 0.10764336585998535
---
header: 
  seq: 195
  stamp: 
    secs: 1661451404
    nsecs: 142437194
  frame_id: "imu_link"
vector: 
  x: 0.040835689753294
  y: -0.3264021873474121
  z: 0.11419401317834856
---
header: 
  seq: 196
  stamp: 
    secs: 1661451404
    nsecs: 153038951
  frame_id: "imu_link"
vector: 
  x: 0.04118687286973
  y: -0.3267265558242798
  z: 0.10829520225524902
---
header: 
  seq: 197
  stamp: 
    secs: 1661451404
    nsecs: 162600415
  frame_id: "imu_link"
vector: 
  x: 0.027343999594449997
  y: -0.3239744603633881
  z: 0.10702925175428392
---
header: 
  seq: 198
  stamp: 
    secs: 1661451404
    nsecs: 173156529
  frame_id: "imu_link"
vector: 
  x: 0.02337007783353329
  y: -0.3196858763694763
  z: 0.09875476360321045
---
header: 
  seq: 199
  stamp: 
    secs: 1661451404
    nsecs: 182815175
  frame_id: "imu_link"
vector: 
  x: 0.021279841661453247
  y: -0.319823831319809
  z: 0.09460997581481934
---
header: 
  seq: 200
  stamp: 
    secs: 1661451404
    nsecs: 193295707
  frame_id: "imu_link"
vector: 
  x: 0.01678954251110554
  y: -0.32694655656814575
  z: 0.08629775792360307
---
header: 
  seq: 201
  stamp: 
    secs: 1661451404
    nsecs: 202762348
  frame_id: "imu_link"
vector: 
  x: 0.018776506185531616
  y: -0.32909083366394043
  z: 0.0904350057244301
---
header: 
  seq: 202
  stamp: 
    secs: 1661451404
    nsecs: 213305595
  frame_id: "imu_link"
vector: 
  x: 0.025308910757303238
  y: -0.3336739838123322
  z: 0.09498920291662218
---
header: 
  seq: 203
  stamp: 
    secs: 1661451404
    nsecs: 222792731
  frame_id: "imu_link"
vector: 
  x: 0.027605695649981502
  y: -0.3289715051651001
  z: 0.09914907813072205
---
header: 
  seq: 204
  stamp: 
    secs: 1661451404
    nsecs: 233356758
  frame_id: "imu_link"
vector: 
  x: 0.031813740730285645
  y: -0.33347636461257935
  z: 0.10349103063344957
---
header: 
  seq: 205
  stamp: 
    secs: 1661451404
    nsecs: 242797481
  frame_id: "imu_link"
vector: 
  x: 0.0457460954785347
  y: -0.33155581355094915
  z: 0.10673834383487701
---
header: 
  seq: 206
  stamp: 
    secs: 1661451404
    nsecs: 252302834
  frame_id: "imu_link"
vector: 
  x: 0.041303932666778564
  y: -0.3268347084522248
  z: 0.10632893443107605
---
header: 
  seq: 207
  stamp: 
    secs: 1661451404
    nsecs: 262936206
  frame_id: "imu_link"
vector: 
  x: 0.03964058309793472
  y: -0.3202339708805085
  z: 0.10024051368236542
---
header: 
  seq: 208
  stamp: 
    secs: 1661451404
    nsecs: 272697332
  frame_id: "imu_link"
vector: 
  x: 0.01939615234732628
  y: -0.3153972625732422
  z: 0.09048028290271759
---
header: 
  seq: 209
  stamp: 
    secs: 1661451404
    nsecs: 282384094
  frame_id: "imu_link"
vector: 
  x: 0.014437612146139145
  y: -0.322087436914444
  z: 0.0900331437587738
---
header: 
  seq: 210
  stamp: 
    secs: 1661451404
    nsecs: 293058927
  frame_id: "imu_link"
vector: 
  x: 0.018983054906129837
  y: -0.324526309967041
  z: 0.09045010060071947
---
header: 
  seq: 211
  stamp: 
    secs: 1661451404
    nsecs: 302809447
  frame_id: "imu_link"
vector: 
  x: 0.02110086753964424
  y: -0.32916912436485296
  z: 0.09064725786447526
---
header: 
  seq: 212
  stamp: 
    secs: 1661451404
    nsecs: 312356821
  frame_id: "imu_link"
vector: 
  x: 0.02563252113759518
  y: -0.3292176127433777
  z: 0.09303802251815796
---
header: 
  seq: 213
  stamp: 
    secs: 1661451404
    nsecs: 322951766
  frame_id: "imu_link"
vector: 
  x: 0.03000575304031372
  y: -0.3219867944717407
  z: 0.10331650823354722
---
header: 
  seq: 214
  stamp: 
    secs: 1661451404
    nsecs: 332415320
  frame_id: "imu_link"
vector: 
  x: 0.03887630254030228
  y: -0.32903864979743963
  z: 0.1061091423034668
---
header: 
  seq: 215
  stamp: 
    secs: 1661451404
    nsecs: 342954622
  frame_id: "imu_link"
vector: 
  x: 0.038435634225606925
  y: -0.33338686823844915
  z: 0.11002658307552338
---
header: 
  seq: 216
  stamp: 
    secs: 1661451404
    nsecs: 352522580
  frame_id: "imu_link"
vector: 
  x: 0.036538153886795044
  y: -0.3265699446201325
  z: 0.1078707054257393
---
header: 
  seq: 217
  stamp: 
    secs: 1661451404
    nsecs: 363225293
  frame_id: "imu_link"
vector: 
  x: 0.03043263778090477
  y: -0.31524813175201416
  z: 0.10137288272380829
---
header: 
  seq: 218
  stamp: 
    secs: 1661451404
    nsecs: 372827344
  frame_id: "imu_link"
vector: 
  x: 0.028459463268518448
  y: -0.3154942095279694
  z: 0.09526181966066362
---
header: 
  seq: 219
  stamp: 
    secs: 1661451404
    nsecs: 382346308
  frame_id: "imu_link"
vector: 
  x: 0.0169823057949543
  y: -0.3199916481971741
  z: 0.08828666806221008
---
header: 
  seq: 220
  stamp: 
    secs: 1661451404
    nsecs: 393097890
  frame_id: "imu_link"
vector: 
  x: 0.021541537716984752
  y: -0.324820876121521
  z: 0.08672980219125749
---
header: 
  seq: 221
  stamp: 
    secs: 1661451404
    nsecs: 402732750
  frame_id: "imu_link"
vector: 
  x: 0.023012127727270126
  y: -0.3383764624595642
  z: 0.0908293202519417
---
header: 
  seq: 222
  stamp: 
    secs: 1661451404
    nsecs: 412423657
  frame_id: "imu_link"
vector: 
  x: 0.027736540883779526
  y: -0.33147004246711737
  z: 0.09520899504423143
---
header: 
  seq: 223
  stamp: 
    secs: 1661451404
    nsecs: 423010259
  frame_id: "imu_link"
vector: 
  x: 0.0319032296538353
  y: -0.3288037478923798
  z: 0.10547239333391191
---
header: 
  seq: 224
  stamp: 
    secs: 1661451404
    nsecs: 433359300
  frame_id: "imu_link"
vector: 
  x: 0.03880060091614724
  y: -0.3361016511917114
  z: 0.10215396434068681
---
header: 
  seq: 225
  stamp: 
    secs: 1661451404
    nsecs: 442819877
  frame_id: "imu_link"
vector: 
  x: 0.03642109408974648
  y: -0.32646182179450994
  z: 0.10983697324991228
---
header: 
  seq: 226
  stamp: 
    secs: 1661451404
    nsecs: 452377005
  frame_id: "imu_link"
vector: 
  x: 0.03453740477561951
  y: -0.3220352530479431
  z: 0.10570728033781053
---
header: 
  seq: 227
  stamp: 
    secs: 1661451404
    nsecs: 463102634
  frame_id: "imu_link"
vector: 
  x: 0.03706831485033035
  y: -0.31754904985427856
  z: 0.10593461990356445
---
header: 
  seq: 228
  stamp: 
    secs: 1661451404
    nsecs: 472820110
  frame_id: "imu_link"
vector: 
  x: 0.019175814464688305
  y: -0.31757140159606934
  z: 0.0924390032887459
---
header: 
  seq: 229
  stamp: 
    secs: 1661451404
    nsecs: 482518578
  frame_id: "imu_link"
vector: 
  x: 0.023707471787929535
  y: -0.31761988997459417
  z: 0.09482976794242859
---
header: 
  seq: 230
  stamp: 
    secs: 1661451404
    nsecs: 493269106
  frame_id: "imu_link"
vector: 
  x: 0.02630731463432312
  y: -0.32508561015129095
  z: 0.08518803864717485
---
header: 
  seq: 231
  stamp: 
    secs: 1661451404
    nsecs: 502826635
  frame_id: "imu_link"
vector: 
  x: 0.0186594445258379
  y: -0.32898271083831787
  z: 0.09240127354860307
---
header: 
  seq: 232
  stamp: 
    secs: 1661451404
    nsecs: 512412270
  frame_id: "imu_link"
vector: 
  x: 0.03216492384672165
  y: -0.33380076289176946
  z: 0.09759221971035004
---
header: 
  seq: 233
  stamp: 
    secs: 1661451404
    nsecs: 522929908
  frame_id: "imu_link"
vector: 
  x: 0.03688933700323105
  y: -0.3268943428993225
  z: 0.10197190195322038
---
header: 
  seq: 234
  stamp: 
    secs: 1661451404
    nsecs: 532598795
  frame_id: "imu_link"
vector: 
  x: 0.027020391076803207
  y: -0.328430861234665
  z: 0.10898042470216752
---
header: 
  seq: 235
  stamp: 
    secs: 1661451404
    nsecs: 543326887
  frame_id: "imu_link"
vector: 
  x: 0.029344748705625534
  y: -0.32850918173789984
  z: 0.10919267684221269
---
header: 
  seq: 236
  stamp: 
    secs: 1661451404
    nsecs: 553053106
  frame_id: "imu_link"
vector: 
  x: 0.041290149092674255
  y: -0.3244442939758301
  z: 0.10830274969339372
---
header: 
  seq: 237
  stamp: 
    secs: 1661451404
    nsecs: 562676454
  frame_id: "imu_link"
vector: 
  x: 0.025680646300315857
  y: -0.3173737823963166
  z: 0.10094083100557329
---
header: 
  seq: 238
  stamp: 
    secs: 1661451404
    nsecs: 572414584
  frame_id: "imu_link"
vector: 
  x: 0.02139690332114697
  y: -0.3199319541454316
  z: 0.09264370799064636
---
header: 
  seq: 239
  stamp: 
    secs: 1661451404
    nsecs: 583224147
  frame_id: "imu_link"
vector: 
  x: 0.019203387200832367
  y: -0.3223522007465363
  z: 0.08849138021469116
---
header: 
  seq: 240
  stamp: 
    secs: 1661451404
    nsecs: 592809671
  frame_id: "imu_link"
vector: 
  x: 0.02133498899638653
  y: -0.3293853998184204
  z: 0.0867147147655487
---
header: 
  seq: 241
  stamp: 
    secs: 1661451404
    nsecs: 602473206
  frame_id: "imu_link"
vector: 
  x: 0.030412081629037857
  y: -0.33187276124954224
  z: 0.08952244371175767
---
header: 
  seq: 242
  stamp: 
    secs: 1661451404
    nsecs: 613208017
  frame_id: "imu_link"
vector: 
  x: 0.027529992163181305
  y: -0.33603453636169434
  z: 0.09519390761852264
---
header: 
  seq: 243
  stamp: 
    secs: 1661451404
    nsecs: 622913626
  frame_id: "imu_link"
vector: 
  x: 0.02676571160554886
  y: -0.34483918547630316
  z: 0.10106253623962402
---
header: 
  seq: 244
  stamp: 
    secs: 1661451404
    nsecs: 632580116
  frame_id: "imu_link"
vector: 
  x: 0.03426894545555115
  y: -0.33605319261550903
  z: 0.0997631922364235
---
header: 
  seq: 245
  stamp: 
    secs: 1661451404
    nsecs: 643230703
  frame_id: "imu_link"
vector: 
  x: 0.03199271485209466
  y: -0.3241310715675354
  z: 0.10745374858379364
---
header: 
  seq: 246
  stamp: 
    secs: 1661451404
    nsecs: 653017766
  frame_id: "imu_link"
vector: 
  x: 0.03897957503795624
  y: -0.3267563879489899
  z: 0.1061166897416115
---
header: 
  seq: 247
  stamp: 
    secs: 1661451404
    nsecs: 662638982
  frame_id: "imu_link"
vector: 
  x: 0.03499186784029007
  y: -0.3200773596763611
  z: 0.09981600940227509
---
header: 
  seq: 248
  stamp: 
    secs: 1661451404
    nsecs: 673286445
  frame_id: "imu_link"
vector: 
  x: 0.023679899051785473
  y: -0.3128390908241272
  z: 0.0987773984670639
---
header: 
  seq: 249
  stamp: 
    secs: 1661451404
    nsecs: 682784213
  frame_id: "imu_link"
vector: 
  x: 0.019072541967034343
  y: -0.31985366344451904
  z: 0.0924314558506012
---
header: 
  seq: 250
  stamp: 
    secs: 1661451404
    nsecs: 693320691
  frame_id: "imu_link"
vector: 
  x: 0.02385210618376732
  y: -0.3225088119506836
  z: 0.08891587704420091
---
header: 
  seq: 251
  stamp: 
    secs: 1661451404
    nsecs: 702809713
  frame_id: "imu_link"
vector: 
  x: 0.023411436006426815
  y: -0.32685706019401556
  z: 0.09283331781625749
---
header: 
  seq: 252
  stamp: 
    secs: 1661451404
    nsecs: 713317429
  frame_id: "imu_link"
vector: 
  x: 0.029840566217899323
  y: -0.33372247219085693
  z: 0.09737996757030487
---
header: 
  seq: 253
  stamp: 
    secs: 1661451404
    nsecs: 722824337
  frame_id: "imu_link"
vector: 
  x: 0.02716502547264099
  y: -0.33331975340843206
  z: 0.10306653380393982
---
header: 
  seq: 254
  stamp: 
    secs: 1661451404
    nsecs: 732493457
  frame_id: "imu_link"
vector: 
  x: 0.03647623956203461
  y: -0.336023360490799
  z: 0.10194171965122223
---
header: 
  seq: 255
  stamp: 
    secs: 1661451404
    nsecs: 743263873
  frame_id: "imu_link"
vector: 
  x: 0.03608369827270508
  y: -0.3285278081893921
  z: 0.11376196891069414
---
header: 
  seq: 256
  stamp: 
    secs: 1661451404
    nsecs: 753019939
  frame_id: "imu_link"
vector: 
  x: 0.04604213312268258
  y: -0.3223186135292053
  z: 0.10873479396104814
---
header: 
  seq: 257
  stamp: 
    secs: 1661451404
    nsecs: 762743787
  frame_id: "imu_link"
vector: 
  x: 0.02579770796000958
  y: -0.31748190522193914
  z: 0.0989745557308197
---
header: 
  seq: 258
  stamp: 
    secs: 1661451404
    nsecs: 772460893
  frame_id: "imu_link"
vector: 
  x: 0.024031082168221477
  y: -0.3131634891033173
  z: 0.09287859499454498
---
header: 
  seq: 259
  stamp: 
    secs: 1661451404
    nsecs: 783154143
  frame_id: "imu_link"
vector: 
  x: 0.007244204171001911
  y: -0.32402667403221136
  z: 0.09135511517524719
---
header: 
  seq: 260
  stamp: 
    secs: 1661451404
    nsecs: 792742816
  frame_id: "imu_link"
vector: 
  x: 0.012478225864470007
  y: -0.3247239589691162
  z: 0.08194826543331146
---
header: 
  seq: 261
  stamp: 
    secs: 1661451404
    nsecs: 802400047
  frame_id: "imu_link"
vector: 
  x: 0.02332194894552231
  y: -0.33152970671653753
  z: 0.09085196256637573
---
header: 
  seq: 262
  stamp: 
    secs: 1661451404
    nsecs: 813076549
  frame_id: "imu_link"
vector: 
  x: 0.020983805879950527
  y: -0.3290610015392304
  z: 0.09261352568864824
---
header: 
  seq: 263
  stamp: 
    secs: 1661451404
    nsecs: 822707853
  frame_id: "imu_link"
vector: 
  x: 0.0340072475373745
  y: -0.33105614781379705
  z: 0.10764336585998535
---
header: 
  seq: 264
  stamp: 
    secs: 1661451404
    nsecs: 832425808
  frame_id: "imu_link"
vector: 
  x: 0.033800698816776276
  y: -0.33562067151069647
  z: 0.10762827098369598
---
header: 
  seq: 265
  stamp: 
    secs: 1661451404
    nsecs: 843205729
  frame_id: "imu_link"
vector: 
  x: 0.03897957503795624
  y: -0.3267563879489899
  z: 0.1061166897416115
---
header: 
  seq: 266
  stamp: 
    secs: 1661451404
    nsecs: 852898915
  frame_id: "imu_link"
vector: 
  x: 0.03221304714679718
  y: -0.3219569623470307
  z: 0.10549502819776536
---
header: 
  seq: 267
  stamp: 
    secs: 1661451404
    nsecs: 862572526
  frame_id: "imu_link"
vector: 
  x: 0.030370723456144333
  y: -0.3247015774250031
  z: 0.09544388204813005
---
header: 
  seq: 268
  stamp: 
    secs: 1661451404
    nsecs: 873327328
  frame_id: "imu_link"
vector: 
  x: 0.023914020508527756
  y: -0.31305536627769476
  z: 0.09484486281871796
---
header: 
  seq: 269
  stamp: 
    secs: 1661451404
    nsecs: 882794404
  frame_id: "imu_link"
vector: 
  x: 0.021734297275543213
  y: -0.3178659677505493
  z: 0.08871871978044511
---
header: 
  seq: 270
  stamp: 
    secs: 1661451404
    nsecs: 893325338
  frame_id: "imu_link"
vector: 
  x: 0.021307416260242462
  y: -0.32460460066795355
  z: 0.09066234529018402
---
header: 
  seq: 271
  stamp: 
    secs: 1661451404
    nsecs: 902957488
  frame_id: "imu_link"
vector: 
  x: 0.023425225168466568
  y: -0.3292474448680878
  z: 0.09085951000452043
---
header: 
  seq: 272
  stamp: 
    secs: 1661451404
    nsecs: 912442198
  frame_id: "imu_link"
vector: 
  x: 0.02729587070643902
  y: -0.3358182609081269
  z: 0.09912644326686859
---
header: 
  seq: 273
  stamp: 
    secs: 1661451404
    nsecs: 923072268
  frame_id: "imu_link"
vector: 
  x: 0.031813740730285645
  y: -0.33347636461257935
  z: 0.10349103063344957
---
header: 
  seq: 274
  stamp: 
    secs: 1661451404
    nsecs: 932656813
  frame_id: "imu_link"
vector: 
  x: 0.025074789300560955
  y: -0.33345770835876465
  z: 0.09892173856496812
---
header: 
  seq: 275
  stamp: 
    secs: 1661451404
    nsecs: 943173976
  frame_id: "imu_link"
vector: 
  x: 0.03633160516619683
  y: -0.3311344683170319
  z: 0.10785561054944993
---
header: 
  seq: 276
  stamp: 
    secs: 1661451404
    nsecs: 952819229
  frame_id: "imu_link"
vector: 
  x: 0.034434132277965546
  y: -0.3243175148963928
  z: 0.10569973289966583
---
header: 
  seq: 277
  stamp: 
    secs: 1661451404
    nsecs: 962578886
  frame_id: "imu_link"
vector: 
  x: 0.027681395411491394
  y: -0.32190847396850586
  z: 0.10310425609350206
---
header: 
  seq: 278
  stamp: 
    secs: 1661451404
    nsecs: 973469424
  frame_id: "imu_link"
vector: 
  x: 0.02373504638671875
  y: -0.3224006593227387
  z: 0.09088214486837388
---
header: 
  seq: 279
  stamp: 
    secs: 1661451404
    nsecs: 983160906
  frame_id: "imu_link"
vector: 
  x: 0.02142447605729103
  y: -0.32471275329589844
  z: 0.08869607746601105
---
header: 
  seq: 280
  stamp: 
    secs: 1661451404
    nsecs: 993036358
  frame_id: "imu_link"
vector: 
  x: 0.016541635617613796
  y: -0.32433989644050604
  z: 0.09220411628484727
---
header: 
  seq: 281
  stamp: 
    secs: 1661451405
    nsecs:   2563359
  frame_id: "imu_link"
vector: 
  x: 0.023425225168466568
  y: -0.3292474448680878
  z: 0.09085951000452043
---
header: 
  seq: 282
  stamp: 
    secs: 1661451405
    nsecs:  13267393
  frame_id: "imu_link"
vector: 
  x: 0.03186888620257378
  y: -0.34303793311119085
  z: 0.09559576958417894
---
header: 
  seq: 283
  stamp: 
    secs: 1661451405
    nsecs:  22861957
  frame_id: "imu_link"
vector: 
  x: 0.027722757309675217
  y: -0.3290796577930451
  z: 0.09718281030654907
---
header: 
  seq: 284
  stamp: 
    secs: 1661451405
    nsecs:  32491345
  frame_id: "imu_link"
vector: 
  x: 0.0319032296538353
  y: -0.3288037478923798
  z: 0.10547239333391191
---
header: 
  seq: 285
  stamp: 
    secs: 1661451405
    nsecs:  43261588
  frame_id: "imu_link"
vector: 
  x: 0.029461808502674103
  y: -0.3286173045635224
  z: 0.10722640901803972
---
header: 
  seq: 286
  stamp: 
    secs: 1661451405
    nsecs:  52874680
  frame_id: "imu_link"
vector: 
  x: 0.04393811523914337
  y: -0.3200662136077881
  z: 0.10656382143497467
---
header: 
  seq: 287
  stamp: 
    secs: 1661451405
    nsecs:  62559250
  frame_id: "imu_link"
vector: 
  x: 0.037226736545562744
  y: -0.32482835650444036
  z: 0.09804690629243852
---
header: 
  seq: 288
  stamp: 
    secs: 1661451405
    nsecs:  72377593
  frame_id: "imu_link"
vector: 
  x: 0.026589561253786087
  y: -0.3134580552577973
  z: 0.0891583114862442
---
header: 
  seq: 289
  stamp: 
    secs: 1661451405
    nsecs:  83298829
  frame_id: "imu_link"
vector: 
  x: 0.024203289300203323
  y: -0.3228332102298737
  z: 0.08301706612110138
---
header: 
  seq: 290
  stamp: 
    secs: 1661451405
    nsecs:  92874605
  frame_id: "imu_link"
vector: 
  x: 0.01678954251110554
  y: -0.32694655656814575
  z: 0.08629775792360307
---
header: 
  seq: 291
  stamp: 
    secs: 1661451405
    nsecs: 102399751
  frame_id: "imu_link"
vector: 
  x: 0.018907351419329647
  y: -0.3315893709659577
  z: 0.08649491518735887
---
header: 
  seq: 292
  stamp: 
    secs: 1661451405
    nsecs: 113110865
  frame_id: "imu_link"
vector: 
  x: 0.030164174735546112
  y: -0.3292661011219025
  z: 0.09542879462242126
---
header: 
  seq: 293
  stamp: 
    secs: 1661451405
    nsecs: 122842692
  frame_id: "imu_link"
vector: 
  x: 0.029372321441769603
  y: -0.33328995108604437
  z: 0.10524504631757738
---
header: 
  seq: 294
  stamp: 
    secs: 1661451405
    nsecs: 133437753
  frame_id: "imu_link"
vector: 
  x: 0.041359081864356995
  y: -0.33639624714851385
  z: 0.09843367338180542
---
header: 
  seq: 295
  stamp: 
    secs: 1661451405
    nsecs: 143029489
  frame_id: "imu_link"
vector: 
  x: 0.03378691524267197
  y: -0.3332302868366242
  z: 0.10960208624601366
---
header: 
  seq: 296
  stamp: 
    secs: 1661451405
    nsecs: 152732146
  frame_id: "imu_link"
vector: 
  x: 0.027474846690893173
  y: -0.3264729976654053
  z: 0.10308916866779327
---
header: 
  seq: 297
  stamp: 
    secs: 1661451405
    nsecs: 162461796
  frame_id: "imu_link"
vector: 
  x: 0.03034315072000027
  y: -0.31992077827453613
  z: 0.09939151257276536
---
header: 
  seq: 298
  stamp: 
    secs: 1661451405
    nsecs: 173413445
  frame_id: "imu_link"
vector: 
  x: 0.023645557463169098
  y: -0.327073335647583
  z: 0.08890078216791154
---
header: 
  seq: 299
  stamp: 
    secs: 1661451405
    nsecs: 182973815
  frame_id: "imu_link"
vector: 
  x: 0.019072541967034343
  y: -0.31985366344451904
  z: 0.0924314558506012
---
header: 
  seq: 300
  stamp: 
    secs: 1661451405
    nsecs: 192594331
  frame_id: "imu_link"
vector: 
  x: 0.02376261912286282
  y: -0.32718145847320557
  z: 0.08693450689315796
---
header: 
  seq: 301
  stamp: 
    secs: 1661451405
    nsecs: 203247295
  frame_id: "imu_link"
vector: 
  x: 0.023335736244916916
  y: -0.3339200913906098
  z: 0.08887814730405809
---
header: 
  seq: 302
  stamp: 
    secs: 1661451405
    nsecs: 212841495
  frame_id: "imu_link"
vector: 
  x: 0.023425225168466568
  y: -0.3292474448680878
  z: 0.09085951000452043
---
header: 
  seq: 303
  stamp: 
    secs: 1661451405
    nsecs: 223345254
  frame_id: "imu_link"
vector: 
  x: 0.03468204289674759
  y: -0.3269241452217102
  z: 0.09979337453842163
---
header: 
  seq: 304
  stamp: 
    secs: 1661451405
    nsecs: 233014575
  frame_id: "imu_link"
vector: 
  x: 0.03179994970560074
  y: -0.3310860097408295
  z: 0.10546484589576721
---
header: 
  seq: 305
  stamp: 
    secs: 1661451405
    nsecs: 242454610
  frame_id: "imu_link"
vector: 
  x: 0.03611127287149429
  y: -0.3333085775375366
  z: 0.10981433093547821
---
header: 
  seq: 306
  stamp: 
    secs: 1661451405
    nsecs: 253190767
  frame_id: "imu_link"
vector: 
  x: 0.032536659389734275
  y: -0.31750056147575384
  z: 0.10354384779930115
---
header: 
  seq: 307
  stamp: 
    secs: 1661451405
    nsecs: 262850475
  frame_id: "imu_link"
vector: 
  x: 0.028459463268518448
  y: -0.3154942095279694
  z: 0.09526181966066362
---
header: 
  seq: 308
  stamp: 
    secs: 1661451405
    nsecs: 272687595
  frame_id: "imu_link"
vector: 
  x: 0.031107431277632717
  y: -0.31111615896224976
  z: 0.09352289140224457
---
header: 
  seq: 309
  stamp: 
    secs: 1661451405
    nsecs: 283277434
  frame_id: "imu_link"
vector: 
  x: 0.009995445609092712
  y: -0.31736633181571966
  z: 0.08962373435497284
---
header: 
  seq: 310
  stamp: 
    secs: 1661451405
    nsecs: 292991001
  frame_id: "imu_link"
vector: 
  x: 0.012347375974059105
  y: -0.32222542166709905
  z: 0.08588834851980211
---
header: 
  seq: 311
  stamp: 
    secs: 1661451405
    nsecs: 302542094
  frame_id: "imu_link"
vector: 
  x: 0.02551545947790146
  y: -0.3291094899177551
  z: 0.09500429034233093
---
header: 
  seq: 312
  stamp: 
    secs: 1661451405
    nsecs: 313130502
  frame_id: "imu_link"
vector: 
  x: 0.020749684423208237
  y: -0.3288447558879853
  z: 0.09654606133699419
---
header: 
  seq: 313
  stamp: 
    secs: 1661451405
    nsecs: 322831341
  frame_id: "imu_link"
vector: 
  x: 0.02295698039233685
  y: -0.32881492376327515
  z: 0.09872458130121232
---
header: 
  seq: 314
  stamp: 
    secs: 1661451405
    nsecs: 332427094
  frame_id: "imu_link"
vector: 
  x: 0.03179994970560074
  y: -0.3310860097408295
  z: 0.10546484589576721
---
header: 
  seq: 315
  stamp: 
    secs: 1661451405
    nsecs: 343156124
  frame_id: "imu_link"
vector: 
  x: 0.041303932666778564
  y: -0.3268347084522248
  z: 0.10632893443107605
---
header: 
  seq: 316
  stamp: 
    secs: 1661451405
    nsecs: 352638968
  frame_id: "imu_link"
vector: 
  x: 0.034654468297958374
  y: -0.3221433758735657
  z: 0.10374101251363756
---
header: 
  seq: 317
  stamp: 
    secs: 1661451405
    nsecs: 363377511
  frame_id: "imu_link"
vector: 
  x: 0.028211552649736404
  y: -0.3128875494003296
  z: 0.10116817802190782
---
header: 
  seq: 318
  stamp: 
    secs: 1661451405
    nsecs: 373229863
  frame_id: "imu_link"
vector: 
  x: 0.01939615234732628
  y: -0.3153972625732422
  z: 0.09048028290271759
---
header: 
  seq: 319
  stamp: 
    secs: 1661451405
    nsecs: 382864589
  frame_id: "imu_link"
vector: 
  x: 0.01933423802256584
  y: -0.32485070824623113
  z: 0.08455128967761993
---
header: 
  seq: 320
  stamp: 
    secs: 1661451405
    nsecs: 392707046
  frame_id: "imu_link"
vector: 
  x: 0.014141575433313848
  y: -0.33132463693618774
  z: 0.0880366936326027
---
header: 
  seq: 321
  stamp: 
    secs: 1661451405
    nsecs: 402533424
  frame_id: "imu_link"
vector: 
  x: 0.02121792733669281
  y: -0.32927727699279785
  z: 0.08868099004030229
---
header: 
  seq: 322
  stamp: 
    secs: 1661451405
    nsecs: 413345168
  frame_id: "imu_link"
vector: 
  x: 0.03217870742082596
  y: -0.33619114756584173
  z: 0.09561840444803239
---
header: 
  seq: 323
  stamp: 
    secs: 1661451405
    nsecs: 422855208
  frame_id: "imu_link"
vector: 
  x: 0.03193080052733422
  y: -0.3335844874382019
  z: 0.1015247628092766
---
header: 
  seq: 324
  stamp: 
    secs: 1661451405
    nsecs: 432412223
  frame_id: "imu_link"
vector: 
  x: 0.03413809835910797
  y: -0.3335546851158142
  z: 0.10370328277349473
---
header: 
  seq: 325
  stamp: 
    secs: 1661451405
    nsecs: 443090995
  frame_id: "imu_link"
vector: 
  x: 0.029358532279729843
  y: -0.3308995664119721
  z: 0.10721886157989502
---
header: 
  seq: 326
  stamp: 
    secs: 1661451405
    nsecs: 452580669
  frame_id: "imu_link"
vector: 
  x: 0.034420344978570945
  y: -0.3219271004199982
  z: 0.1076735481619835
---
header: 
  seq: 327
  stamp: 
    secs: 1661451405
    nsecs: 463239692
  frame_id: "imu_link"
vector: 
  x: 0.025694435462355617
  y: -0.31976416707038885
  z: 0.09896700829267503
---
header: 
  seq: 328
  stamp: 
    secs: 1661451405
    nsecs: 472788505
  frame_id: "imu_link"
vector: 
  x: 0.019382363185286525
  y: -0.3130068778991699
  z: 0.09245409816503526
---
header: 
  seq: 329
  stamp: 
    secs: 1661451405
    nsecs: 483340704
  frame_id: "imu_link"
vector: 
  x: 0.028280489146709442
  y: -0.32483950257301336
  z: 0.09129910171031952
---
header: 
  seq: 330
  stamp: 
    secs: 1661451405
    nsecs: 492872342
  frame_id: "imu_link"
vector: 
  x: 0.02132119983434677
  y: -0.32699501514434814
  z: 0.08868853747844696
---
header: 
  seq: 331
  stamp: 
    secs: 1661451405
    nsecs: 502502769
  frame_id: "imu_link"
vector: 
  x: 0.018907351419329647
  y: -0.3315893709659577
  z: 0.08649491518735887
---
header: 
  seq: 332
  stamp: 
    secs: 1661451405
    nsecs: 513134821
  frame_id: "imu_link"
vector: 
  x: 0.022970765829086304
  y: -0.33120533823966986
  z: 0.09675076603889465
---
header: 
  seq: 333
  stamp: 
    secs: 1661451405
    nsecs: 522578487
  frame_id: "imu_link"
vector: 
  x: 0.02451705746352673
  y: -0.3376978635787964
  z: 0.10480545461177826
---
header: 
  seq: 334
  stamp: 
    secs: 1661451405
    nsecs: 533250125
  frame_id: "imu_link"
vector: 
  x: 0.026917114853858948
  y: -0.3307131230831147
  z: 0.10897287726402283
---
header: 
  seq: 335
  stamp: 
    secs: 1661451405
    nsecs: 542789986
  frame_id: "imu_link"
vector: 
  x: 0.031448766589164734
  y: -0.3307616114616394
  z: 0.11136365681886674
---
header: 
  seq: 336
  stamp: 
    secs: 1661451405
    nsecs: 553463808
  frame_id: "imu_link"
vector: 
  x: 0.0369788259267807
  y: -0.32222169637680054
  z: 0.10395325720310211
---
header: 
  seq: 337
  stamp: 
    secs: 1661451405
    nsecs: 563152140
  frame_id: "imu_link"
vector: 
  x: 0.03012281283736229
  y: -0.3220949172973633
  z: 0.10135024040937425
---
header: 
  seq: 338
  stamp: 
    secs: 1661451405
    nsecs: 572899029
  frame_id: "imu_link"
vector: 
  x: 0.026369228959083557
  y: -0.315632164478302
  z: 0.0911170318722725
---
header: 
  seq: 339
  stamp: 
