header: 
  seq: 3
  stamp: 
    secs: 1661451402
    nsecs: 342595895
  frame_id: "imu_link"
orientation: 
  x: -0.013730894284554361
  y: -0.026592224157701537
  z: 0.00018022073531694078
  w: 0.9995520415050831
orientation_covariance: [0.017449999964008707, 0.0, 0.0, 0.0, 0.017449999964008707, 0.0, 0.0, 0.0, 0.15707999987357524]
angular_velocity: 
  x: 0.00012124092609155923
  y: 0.0017671416280791166
  z: -0.00048817429342307156
angular_velocity_covariance: [0.0004, 0.0, 0.0, 0.0, 0.0004, 0.0, 0.0, 0.0, 0.0004]
linear_acceleration: 
  x: 0.0
  y: 0.0
  z: 0.0
linear_acceleration_covariance: [-1.0, 0.0, 0.0, 0.0, 0.0, 0.0, 0.0, 0.0, 0.0]
---
header: 
  seq: 4
  stamp: 
    secs: 1661451402
    nsecs: 392425199
  frame_id: "imu_link"
orientation: 
  x: -0.013747764478936123
  y: -0.02659400545254447
  z: 0.0001581539536148973
  w: 0.999551765959697
orientation_covariance: [0.017449999964008707, 0.0, 0.0, 0.0, 0.017449999964008707, 0.0, 0.0, 0.0, 0.15707999987357524]
angular_velocity: 
  x: -0.0006980433245189489
  y: -5.965783930150792e-05
  z: -0.0008653186378069223
angular_velocity_covariance: [0.0004, 0.0, 0.0, 0.0, 0.0004, 0.0, 0.0, 0.0, 0.0004]
linear_acceleration: 
  x: 0.0
  y: 0.0
  z: 0.0
linear_acceleration_covariance: [-1.0, 0.0, 0.0, 0.0, 0.0, 0.0, 0.0, 0.0, 0.0]
---
header: 
  seq: 5
  stamp: 
    secs: 1661451402
    nsecs: 442769555
  frame_id: "imu_link"
orientation: 
  x: -0.013753031041984049
  y: -0.02654356226738806
  z: 0.00016945348337787182
  w: 0.9995530324724309
orientation_covariance: [0.017449999964008707, 0.0, 0.0, 0.0, 0.017449999964008707, 0.0, 0.0, 0.0, 0.15707999987357524]
angular_velocity: 
  x: -0.00019758693815674635
  y: 0.0020120285917073493
  z: 0.0004851135890930891
angular_velocity_covariance: [0.0004, 0.0, 0.0, 0.0, 0.0004, 0.0, 0.0, 0.0, 0.0004]
linear_acceleration: 
  x: 0.0
  y: 0.0
  z: 0.0
linear_acceleration_covariance: [-1.0, 0.0, 0.0, 0.0, 0.0, 0.0, 0.0, 0.0, 0.0]
---
header: 
  seq: 6
  stamp: 
    secs: 1661451402
    nsecs: 492999468
  frame_id: "imu_link"
orientation: 
  x: -0.013750799053089326
  y: -0.026489880309553133
  z: 0.0001154820761595552
  w: 0.9995544949778763
orientation_covariance: [0.017449999964008707, 0.0, 0.0, 0.0, 0.017449999964008707, 0.0, 0.0, 0.0, 0.15707999987357524]
angular_velocity: 
  x: 3.3036500099115074e-05
  y: 0.0021778799127787356
  z: -0.0021307296119630337
angular_velocity_covariance: [0.0004, 0.0, 0.0, 0.0, 0.0004, 0.0, 0.0, 0.0, 0.0004]
linear_acceleration: 
  x: 0.0
  y: 0.0
  z: 0.0
linear_acceleration_covariance: [-1.0, 0.0, 0.0, 0.0, 0.0, 0.0, 0.0, 0.0, 0.0]
---
header: 
  seq: 7
  stamp: 
    secs: 1661451402
    nsecs: 543009776
  frame_id: "imu_link"
orientation: 
  x: -0.013788046532926384
  y: -0.026471531539758727
  z: 8.296029031539415e-05
  w: 0.9995544712062148
orientation_covariance: [0.017449999964008707, 0.0, 0.0, 0.0, 0.017449999964008707, 0.0, 0.0, 0.0, 0.15707999987357524]
angular_velocity: 
  x: -0.0015236454783007505
  y: 0.0007519291248172522
  z: -0.0012507231440395117
angular_velocity_covariance: [0.0004, 0.0, 0.0, 0.0, 0.0004, 0.0, 0.0, 0.0, 0.0004]
linear_acceleration: 
  x: 0.0
  y: 0.0
  z: 0.0
linear_acceleration_covariance: [-1.0, 0.0, 0.0, 0.0, 0.0, 0.0, 0.0, 0.0, 0.0]
---
header: 
  seq: 8
  stamp: 
    secs: 1661451402
    nsecs: 592125497
  frame_id: "imu_link"
orientation: 
  x: -0.013817177147536644
  y: -0.026453313336715117
  z: 5.2174188768921385e-05
  w: 0.9995545533421561
orientation_covariance: [0.017449999964008707, 0.0, 0.0, 0.0, 0.017449999964008707, 0.0, 0.0, 0.0, 0.15707999987357524]
angular_velocity: 
  x: -0.0011970613850280645
  y: 0.0007454562000930309
  z: -0.0011900138342753055
angular_velocity_covariance: [0.0004, 0.0, 0.0, 0.0, 0.0004, 0.0, 0.0, 0.0, 0.0004]
linear_acceleration: 
  x: 0.0
  y: 0.0
  z: 0.0
linear_acceleration_covariance: [-1.0, 0.0, 0.0, 0.0, 0.0, 0.0, 0.0, 0.0, 0.0]
---
header: 
  seq: 9
  stamp: 
    secs: 1661451402
    nsecs: 643084170
  frame_id: "imu_link"
orientation: 
  x: -0.013810041849352415
  y: -0.026410762904814256
  z: 5.625944971282651e-05
  w: 0.9995557769238188
orientation_covariance: [0.017449999964008707, 0.0, 0.0, 0.0, 0.017449999964008707, 0.0, 0.0, 0.0, 0.15707999987357524]
angular_velocity: 
  x: 0.0002903595741372556
  y: 0.0017001567175611856
  z: 0.00017929926980286837
angular_velocity_covariance: [0.0004, 0.0, 0.0, 0.0, 0.0004, 0.0, 0.0, 0.0, 0.0004]
linear_acceleration: 
  x: 0.0
  y: 0.0
  z: 0.0
linear_acceleration_covariance: [-1.0, 0.0, 0.0, 0.0, 0.0, 0.0, 0.0, 0.0, 0.0]
---
header: 
  seq: 10
  stamp: 
    secs: 1661451402
    nsecs: 692643226
  frame_id: "imu_link"
orientation: 
  x: -0.013848854672024895
  y: -0.026333566355284995
  z: 1.9036439902577525e-06
  w: 0.9995572782505567
orientation_covariance: [0.017449999964008707, 0.0, 0.0, 0.0, 0.017449999964008707, 0.0, 0.0, 0.0, 0.15707999987357524]
angular_velocity: 
  x: -0.0016083666123449802
  y: 0.00311809522099793
  z: -0.002089621964842081
angular_velocity_covariance: [0.0004, 0.0, 0.0, 0.0, 0.0004, 0.0, 0.0, 0.0, 0.0004]
linear_acceleration: 
  x: 0.0
  y: 0.0
  z: 0.0
linear_acceleration_covariance: [-1.0, 0.0, 0.0, 0.0, 0.0, 0.0, 0.0, 0.0, 0.0]
---
header: 
  seq: 11
  stamp: 
    secs: 1661451402
    nsecs: 742269444
  frame_id: "imu_link"
orientation: 
  x: -0.013852197873299724
  y: -0.02629322463165422
  z: -3.5438469677660095e-05
  w: 0.9995582932959255
orientation_covariance: [0.017449999964008707, 0.0, 0.0, 0.0, 0.017449999964008707, 0.0, 0.0, 0.0, 0.15707999987357524]
angular_velocity: 
  x: -0.0001723665773170069
  y: 0.0016348969656974077
  z: -0.0014671562239527702
angular_velocity_covariance: [0.0004, 0.0, 0.0, 0.0, 0.0004, 0.0, 0.0, 0.0, 0.0004]
linear_acceleration: 
  x: 0.0
  y: 0.0
  z: 0.0
linear_acceleration_covariance: [-1.0, 0.0, 0.0, 0.0, 0.0, 0.0, 0.0, 0.0, 0.0]
---
header: 
  seq: 12
  stamp: 
    secs: 1661451402
    nsecs: 792770600
  frame_id: "imu_link"
orientation: 
  x: -0.013896328861562194
  y: -0.02625475858251392
  z: -4.6892005560901116e-05
  w: 0.9995586913718898
orientation_covariance: [0.017449999964008707, 0.0, 0.0, 0.0, 0.017449999964008707, 0.0, 0.0, 0.0, 0.15707999987357524]
angular_velocity: 
  x: -0.0017764256335794926
  y: 0.0015446987235918643
  z: -0.00039020576514303684
angular_velocity_covariance: [0.0004, 0.0, 0.0, 0.0, 0.0004, 0.0, 0.0, 0.0, 0.0004]
linear_acceleration: 
  x: 0.0
  y: 0.0
  z: 0.0
linear_acceleration_covariance: [-1.0, 0.0, 0.0, 0.0, 0.0, 0.0, 0.0, 0.0, 0.0]
---
header: 
  seq: 13
  stamp: 
    secs: 1661451402
    nsecs: 842417236
  frame_id: "imu_link"
orientation: 
  x: -0.01388869408763439
  y: -0.026222582952530906
  z: -8.613544819567815e-05
  w: 0.9995596394915724
orientation_covariance: [0.017449999964008707, 0.0, 0.0, 0.0, 0.017449999964008707, 0.0, 0.0, 0.0, 0.15707999987357524]
angular_velocity: 
  x: 0.0002644697378855199
  y: 0.00130930298473686
  z: -0.0015591764822602272
angular_velocity_covariance: [0.0004, 0.0, 0.0, 0.0, 0.0004, 0.0, 0.0, 0.0, 0.0004]
linear_acceleration: 
  x: 0.0
  y: 0.0
  z: 0.0
linear_acceleration_covariance: [-1.0, 0.0, 0.0, 0.0, 0.0, 0.0, 0.0, 0.0, 0.0]
---
header: 
  seq: 14
  stamp: 
    secs: 1661451402
    nsecs: 892670036
  frame_id: "imu_link"
orientation: 
  x: -0.01389791887631101
  y: -0.026202740759506106
  z: -0.00012342493550691387
  w: 0.9995600277091331
orientation_covariance: [0.017449999964008707, 0.0, 0.0, 0.0, 0.017449999964008707, 0.0, 0.0, 0.0, 0.15707999987357524]
angular_velocity: 
  x: -0.0004076880868524313
  y: 0.0008142820443026723
  z: -0.001470223069190979
angular_velocity_covariance: [0.0004, 0.0, 0.0, 0.0, 0.0004, 0.0, 0.0, 0.0, 0.0004]
linear_acceleration: 
  x: 0.0
  y: 0.0
  z: 0.0
linear_acceleration_covariance: [-1.0, 0.0, 0.0, 0.0, 0.0, 0.0, 0.0, 0.0, 0.0]
---
header: 
  seq: 15
  stamp: 
    secs: 1661451402
    nsecs: 943198178
  frame_id: "imu_link"
orientation: 
  x: -0.013917329393151049
  y: -0.026185751907491447
  z: -0.00015099805444535996
  w: 0.99956019905716
orientation_covariance: [0.017449999964008707, 0.0, 0.0, 0.0, 0.017449999964008707, 0.0, 0.0, 0.0, 0.15707999987357524]
angular_velocity: 
  x: -0.0008051245240494609
  y: 0.0006945486529730261
  z: -0.0010726515902206304
angular_velocity_covariance: [0.0004, 0.0, 0.0, 0.0, 0.0004, 0.0, 0.0, 0.0, 0.0004]
linear_acceleration: 
  x: 0.0
  y: 0.0
  z: 0.0
linear_acceleration_covariance: [-1.0, 0.0, 0.0, 0.0, 0.0, 0.0, 0.0, 0.0, 0.0]
---
header: 
  seq: 16
  stamp: 
    secs: 1661451402
    nsecs: 992560599
  frame_id: "imu_link"
orientation: 
  x: -0.013922653822710136
  y: -0.026168256698498538
  z: -0.00020643757563469195
  w: 0.9995605731697415
orientation_covariance: [0.017449999964008707, 0.0, 0.0, 0.0, 0.017449999964008707, 0.0, 0.0, 0.0, 0.15707999987357524]
angular_velocity: 
  x: -0.0002708283718675375
  y: 0.0007307399646379055
  z: -0.002201287541538477
angular_velocity_covariance: [0.0004, 0.0, 0.0, 0.0, 0.0004, 0.0, 0.0, 0.0, 0.0004]
linear_acceleration: 
  x: 0.0
  y: 0.0
  z: 0.0
linear_acceleration_covariance: [-1.0, 0.0, 0.0, 0.0, 0.0, 0.0, 0.0, 0.0, 0.0]
---
header: 
  seq: 17
  stamp: 
    secs: 1661451403
    nsecs:  42498821
  frame_id: "imu_link"
orientation: 
  x: -0.013928616351584341
  y: -0.02613583906305584
  z: -0.0002606430050248448
  w: 0.999561325596496
orientation_covariance: [0.017449999964008707, 0.0, 0.0, 0.0, 0.017449999964008707, 0.0, 0.0, 0.0, 0.15707999987357524]
angular_velocity: 
  x: -0.00029512227047234774
  y: 0.0013272317592054605
  z: -0.0021429571788758044
angular_velocity_covariance: [0.0004, 0.0, 0.0, 0.0, 0.0004, 0.0, 0.0, 0.0, 0.0004]
linear_acceleration: 
  x: 0.0
  y: 0.0
  z: 0.0
linear_acceleration_covariance: [-1.0, 0.0, 0.0, 0.0, 0.0, 0.0, 0.0, 0.0, 0.0]
---
header: 
  seq: 18
  stamp: 
    secs: 1661451403
    nsecs:  92317458
  frame_id: "imu_link"
orientation: 
  x: -0.013905896698651941
  y: -0.02609279414348738
  z: -0.00027898323920984026
  w: 0.9995627615608458
orientation_covariance: [0.017449999964008707, 0.0, 0.0, 0.0, 0.017449999964008707, 0.0, 0.0, 0.0, 0.15707999987357524]
angular_velocity: 
  x: 0.0008895472856238484
  y: 0.0017331807175651195
  z: -0.00073303806129843
angular_velocity_covariance: [0.0004, 0.0, 0.0, 0.0, 0.0004, 0.0, 0.0, 0.0, 0.0004]
linear_acceleration: 
  x: 0.0
  y: 0.0
  z: 0.0
linear_acceleration_covariance: [-1.0, 0.0, 0.0, 0.0, 0.0, 0.0, 0.0, 0.0, 0.0]
---
header: 
  seq: 19
  stamp: 
    secs: 1661451403
    nsecs: 142963128
  frame_id: "imu_link"
orientation: 
  x: -0.013918718774560744
  y: -0.026032462013945885
  z: -0.000278550459716581
  w: 0.9995641563195473
orientation_covariance: [0.017449999964008707, 0.0, 0.0, 0.0, 0.017449999964008707, 0.0, 0.0, 0.0, 0.15707999987357524]
angular_velocity: 
  x: -0.0005121789872646332
  y: 0.0024129643570631747
  z: 6.425400351872669e-05
angular_velocity_covariance: [0.0004, 0.0, 0.0, 0.0, 0.0004, 0.0, 0.0, 0.0, 0.0004]
linear_acceleration: 
  x: 0.0
  y: 0.0
  z: 0.0
linear_acceleration_covariance: [-1.0, 0.0, 0.0, 0.0, 0.0, 0.0, 0.0, 0.0, 0.0]
---
header: 
  seq: 20
  stamp: 
    secs: 1661451403
    nsecs: 193318872
  frame_id: "imu_link"
orientation: 
  x: -0.013925147119913188
  y: -0.026013749185131323
  z: -0.0002921978075132979
  w: 0.9995645500674096
orientation_covariance: [0.017449999964008707, 0.0, 0.0, 0.0, 0.017449999964008707, 0.0, 0.0, 0.0, 0.15707999987357524]
angular_velocity: 
  x: -0.0002709549153223634
  y: 0.0007560272351838649
  z: -0.0005285457009449601
angular_velocity_covariance: [0.0004, 0.0, 0.0, 0.0, 0.0004, 0.0, 0.0, 0.0, 0.0004]
linear_acceleration: 
  x: 0.0
  y: 0.0
  z: 0.0
linear_acceleration_covariance: [-1.0, 0.0, 0.0, 0.0, 0.0, 0.0, 0.0, 0.0, 0.0]
---
header: 
  seq: 21
  stamp: 
    secs: 1661451403
    nsecs: 242446466
  frame_id: "imu_link"
orientation: 
  x: -0.013918703019714313
  y: -0.025985553824354427
  z: -0.00026316851770630386
  w: 0.9995653812737924
orientation_covariance: [0.017449999964008707, 0.0, 0.0, 0.0, 0.017449999964008707, 0.0, 0.0, 0.0, 0.15707999987357524]
angular_velocity: 
  x: 0.0002877970109693706
  y: 0.0011125807650387287
  z: 0.0011696893488988282
angular_velocity_covariance: [0.0004, 0.0, 0.0, 0.0, 0.0004, 0.0, 0.0, 0.0, 0.0004]
linear_acceleration: 
  x: 0.0
  y: 0.0
  z: 0.0
linear_acceleration_covariance: [-1.0, 0.0, 0.0, 0.0, 0.0, 0.0, 0.0, 0.0, 0.0]
---
header: 
  seq: 22
  stamp: 
    secs: 1661451403
    nsecs: 293215441
  frame_id: "imu_link"
orientation: 
  x: -0.013931393232286187
  y: -0.02597153145549238
  z: -0.00035551538147293146
  w: 0.9995655403450427
orientation_covariance: [0.017449999964008707, 0.0, 0.0, 0.0, 0.017449999964008707, 0.0, 0.0, 0.0, 0.15707999987357524]
angular_velocity: 
  x: -0.0006034543039277196
  y: 0.0006117434822954239
  z: -0.0036712782457470894
angular_velocity_covariance: [0.0004, 0.0, 0.0, 0.0, 0.0004, 0.0, 0.0, 0.0, 0.0004]
linear_acceleration: 
  x: 0.0
  y: 0.0
  z: 0.0
linear_acceleration_covariance: [-1.0, 0.0, 0.0, 0.0, 0.0, 0.0, 0.0, 0.0, 0.0]
---
header: 
  seq: 23
  stamp: 
    secs: 1661451403
    nsecs: 342904875
  frame_id: "imu_link"
orientation: 
  x: -0.01392361971182736
  y: -0.025901377527694693
  z: -0.00038183709669815154
  w: 0.9995674592826238
orientation_covariance: [0.017449999964008707, 0.0, 0.0, 0.0, 0.017449999964008707, 0.0, 0.0, 0.0, 0.15707999987357524]
angular_velocity: 
  x: 0.0002834298938978464
  y: 0.002821659203618765
  z: -0.0010213616769760847
angular_velocity_covariance: [0.0004, 0.0, 0.0, 0.0, 0.0004, 0.0, 0.0, 0.0, 0.0004]
linear_acceleration: 
  x: 0.0
  y: 0.0
  z: 0.0
linear_acceleration_covariance: [-1.0, 0.0, 0.0, 0.0, 0.0, 0.0, 0.0, 0.0, 0.0]
---
header: 
  seq: 24
  stamp: 
    secs: 1661451403
    nsecs: 393072114
  frame_id: "imu_link"
orientation: 
  x: -0.013929247724015733
  y: -0.025890983141292092
  z: -0.00040049784299555475
  w: 0.9995676428593006
orientation_covariance: [0.017449999964008707, 0.0, 0.0, 0.0, 0.017449999964008707, 0.0, 0.0, 0.0, 0.15707999987357524]
angular_velocity: 
  x: -0.00024466245668008924
  y: 0.0004261093272361905
  z: -0.0007344770710915327
angular_velocity_covariance: [0.0004, 0.0, 0.0, 0.0, 0.0004, 0.0, 0.0, 0.0, 0.0004]
linear_acceleration: 
  x: 0.0
  y: 0.0
  z: 0.0
linear_acceleration_covariance: [-1.0, 0.0, 0.0, 0.0, 0.0, 0.0, 0.0, 0.0, 0.0]
---
header: 
  seq: 25
  stamp: 
    secs: 1661451403
    nsecs: 442206795
  frame_id: "imu_link"
orientation: 
  x: -0.013919958983651072
  y: -0.0258525905130152
  z: -0.0004184668081109022
  w: 0.9995687586110273
orientation_covariance: [0.017449999964008707, 0.0, 0.0, 0.0, 0.017449999964008707, 0.0, 0.0, 0.0, 0.15707999987357524]
angular_velocity: 
  x: 0.000352766044670716
  y: 0.0015460065333172681
  z: -0.0007066670805215836
angular_velocity_covariance: [0.0004, 0.0, 0.0, 0.0, 0.0004, 0.0, 0.0, 0.0, 0.0004]
linear_acceleration: 
  x: 0.0
  y: 0.0
  z: 0.0
linear_acceleration_covariance: [-1.0, 0.0, 0.0, 0.0, 0.0, 0.0, 0.0, 0.0, 0.0]
---
header: 
  seq: 26
  stamp: 
    secs: 1661451403
    nsecs: 492658114
  frame_id: "imu_link"
orientation: 
  x: -0.013927495347347428
  y: -0.02581344248339354
  z: -0.0004722242050717912
  w: 0.999569641428153
orientation_covariance: [0.017449999964008707, 0.0, 0.0, 0.0, 0.017449999964008707, 0.0, 0.0, 0.0, 0.15707999987357524]
angular_velocity: 
  x: -0.00035710918018594384
  y: 0.0015959026059135797
  z: -0.0021197651512920856
angular_velocity_covariance: [0.0004, 0.0, 0.0, 0.0, 0.0004, 0.0, 0.0, 0.0, 0.0004]
linear_acceleration: 
  x: 0.0
  y: 0.0
  z: 0.0
linear_acceleration_covariance: [-1.0, 0.0, 0.0, 0.0, 0.0, 0.0, 0.0, 0.0, 0.0]
---
header: 
  seq: 27
  stamp: 
    secs: 1661451403
    nsecs: 542855787
  frame_id: "imu_link"
orientation: 
  x: -0.013911798389356194
  y: -0.02575068888297696
  z: -0.000498735577301283
  w: 0.9995714657544252
orientation_covariance: [0.017449999964008707, 0.0, 0.0, 0.0, 0.017449999964008707, 0.0, 0.0, 0.0, 0.15707999987357524]
angular_velocity: 
  x: 0.0006002036971040071
  y: 0.0025258162058889866
  z: -0.0010412153787910938
angular_velocity_covariance: [0.0004, 0.0, 0.0, 0.0, 0.0004, 0.0, 0.0, 0.0, 0.0004]
linear_acceleration: 
  x: 0.0
  y: 0.0
  z: 0.0
linear_acceleration_covariance: [-1.0, 0.0, 0.0, 0.0, 0.0, 0.0, 0.0, 0.0, 0.0]
---
header: 
  seq: 28
  stamp: 
    secs: 1661451403
    nsecs: 593017889
  frame_id: "imu_link"
orientation: 
  x: -0.013926418104675558
  y: -0.025703022901306768
  z: -0.0005277332832340555
  w: 0.9995724741058502
orientation_covariance: [0.017449999964008707, 0.0, 0.0, 0.0, 0.017449999964008707, 0.0, 0.0, 0.0, 0.15707999987357524]
angular_velocity: 
  x: -0.0006149224936962128
  y: 0.0019223120762035253
  z: -0.0011178087443113327
angular_velocity_covariance: [0.0004, 0.0, 0.0, 0.0, 0.0004, 0.0, 0.0, 0.0, 0.0004]
linear_acceleration: 
  x: 0.0
  y: 0.0
  z: 0.0
linear_acceleration_covariance: [-1.0, 0.0, 0.0, 0.0, 0.0, 0.0, 0.0, 0.0, 0.0]
---
header: 
  seq: 29
  stamp: 
    secs: 1661451403
    nsecs: 642931178
  frame_id: "imu_link"
orientation: 
  x: -0.013955514365352495
  y: -0.025662125415300944
  z: -0.000569440786316658
  w: 0.9995730962141582
orientation_covariance: [0.017449999964008707, 0.0, 0.0, 0.0, 0.017449999964008707, 0.0, 0.0, 0.0, 0.15707999987357524]
angular_velocity: 
  x: -0.001206760061904788
  y: 0.001658569322898984
  z: -0.0016148671275004747
angular_velocity_covariance: [0.0004, 0.0, 0.0, 0.0, 0.0004, 0.0, 0.0, 0.0, 0.0004]
linear_acceleration: 
  x: 0.0
  y: 0.0
  z: 0.0
linear_acceleration_covariance: [-1.0, 0.0, 0.0, 0.0, 0.0, 0.0, 0.0, 0.0, 0.0]
---
header: 
  seq: 30
  stamp: 
    secs: 1661451403
    nsecs: 693813901
  frame_id: "imu_link"
orientation: 
  x: -0.01399963758430479
  y: -0.025573641123015384
  z: -0.0005983692796489831
  w: 0.9995747300634528
orientation_covariance: [0.017449999964008707, 0.0, 0.0, 0.0, 0.017449999964008707, 0.0, 0.0, 0.0, 0.15707999987357524]
angular_velocity: 
  x: -0.001794974086806178
  y: 0.0035543192643672232
  z: -0.001061929389834404
angular_velocity_covariance: [0.0004, 0.0, 0.0, 0.0, 0.0004, 0.0, 0.0, 0.0, 0.0004]
linear_acceleration: 
  x: 0.0
  y: 0.0
  z: 0.0
linear_acceleration_covariance: [-1.0, 0.0, 0.0, 0.0, 0.0, 0.0, 0.0, 0.0, 0.0]
---
header: 
  seq: 31
  stamp: 
    secs: 1661451403
    nsecs: 743447477
  frame_id: "imu_link"
orientation: 
  x: -0.013972733551702282
  y: -0.02550534929721653
  z: -0.0006394376894257053
  w: 0.9995768259587462
orientation_covariance: [0.017449999964008707, 0.0, 0.0, 0.0, 0.017449999964008707, 0.0, 0.0, 0.0, 0.15707999987357524]
angular_velocity: 
  x: 0.0010330305667594077
  y: 0.002756485715508461
  z: -0.0016312634106725454
angular_velocity_covariance: [0.0004, 0.0, 0.0, 0.0, 0.0004, 0.0, 0.0, 0.0, 0.0004]
linear_acceleration: 
  x: 0.0
  y: 0.0
  z: 0.0
linear_acceleration_covariance: [-1.0, 0.0, 0.0, 0.0, 0.0, 0.0, 0.0, 0.0, 0.0]
---
header: 
  seq: 32
  stamp: 
    secs: 1661451403
    nsecs: 793210693
  frame_id: "imu_link"
orientation: 
  x: -0.013997750280434436
  y: -0.025413782393515754
  z: -0.0006644857026490703
  w: 0.9995787918469923
orientation_covariance: [0.017449999964008707, 0.0, 0.0, 0.0, 0.017449999964008707, 0.0, 0.0, 0.0, 0.15707999987357524]
angular_velocity: 
  x: -0.001026699086651206
  y: 0.003676319727674127
  z: -0.0009247520938515663
angular_velocity_covariance: [0.0004, 0.0, 0.0, 0.0, 0.0004, 0.0, 0.0, 0.0, 0.0004]
linear_acceleration: 
  x: 0.0
  y: 0.0
  z: 0.0
linear_acceleration_covariance: [-1.0, 0.0, 0.0, 0.0, 0.0, 0.0, 0.0, 0.0, 0.0]
---
header: 
  seq: 33
  stamp: 
    secs: 1661451403
    nsecs: 843302578
  frame_id: "imu_link"
orientation: 
  x: -0.014052052143865859
  y: -0.025385801373669005
  z: -0.0007128318653796971
  w: 0.9995787076513256
orientation_covariance: [0.017449999964008707, 0.0, 0.0, 0.0, 0.017449999964008707, 0.0, 0.0, 0.0, 0.15707999987357524]
angular_velocity: 
  x: -0.002221152884885669
  y: 0.0011444567935541274
  z: -0.0018621634226292372
angular_velocity_covariance: [0.0004, 0.0, 0.0, 0.0, 0.0004, 0.0, 0.0, 0.0, 0.0004]
linear_acceleration: 
  x: 0.0
  y: 0.0
  z: 0.0
linear_acceleration_covariance: [-1.0, 0.0, 0.0, 0.0, 0.0, 0.0, 0.0, 0.0, 0.0]
---
header: 
  seq: 34
  stamp: 
    secs: 1661451403
    nsecs: 892518569
  frame_id: "imu_link"
orientation: 
  x: -0.014056881842596913
  y: -0.025294548820451575
  z: -0.0007677210698142371
  w: 0.9995809124213967
orientation_covariance: [0.017449999964008707, 0.0, 0.0, 0.0, 0.017449999964008707, 0.0, 0.0, 0.0, 0.15707999987357524]
angular_velocity: 
  x: -0.00025015065330080693
  y: 0.003681554924696684
  z: -0.0021383890416473155
angular_velocity_covariance: [0.0004, 0.0, 0.0, 0.0, 0.0004, 0.0, 0.0, 0.0, 0.0004]
linear_acceleration: 
  x: 0.0
  y: 0.0
  z: 0.0
linear_acceleration_covariance: [-1.0, 0.0, 0.0, 0.0, 0.0, 0.0, 0.0, 0.0, 0.0]
---
header: 
  seq: 35
  stamp: 
    secs: 1661451403
    nsecs: 942835814
  frame_id: "imu_link"
orientation: 
  x: -0.014068943307772698
  y: -0.025251702912700062
  z: -0.0008063637101669626
  w: 0.9995817956084325
orientation_covariance: [0.017449999964008707, 0.0, 0.0, 0.0, 0.017449999964008707, 0.0, 0.0, 0.0, 0.15707999987357524]
angular_velocity: 
  x: -0.0005221558967605233
  y: 0.0017353760777041318
  z: -0.0015087336068972947
angular_velocity_covariance: [0.0004, 0.0, 0.0, 0.0, 0.0004, 0.0, 0.0, 0.0, 0.0004]
linear_acceleration: 
  x: 0.0
  y: 0.0
  z: 0.0
linear_acceleration_covariance: [-1.0, 0.0, 0.0, 0.0, 0.0, 0.0, 0.0, 0.0, 0.0]
---
header: 
  seq: 36
  stamp: 
    secs: 1661451403
    nsecs: 992644734
  frame_id: "imu_link"
orientation: 
  x: -0.01410377856384178
  y: -0.025207926575403314
  z: -0.0008450755460503998
  w: 0.999582377653444
orientation_covariance: [0.017449999964008707, 0.0, 0.0, 0.0, 0.017449999964008707, 0.0, 0.0, 0.0, 0.15707999987357524]
angular_velocity: 
  x: -0.001433163182809949
  y: 0.0017716189613565805
  z: -0.0014879850205034018
angular_velocity_covariance: [0.0004, 0.0, 0.0, 0.0, 0.0004, 0.0, 0.0, 0.0, 0.0004]
linear_acceleration: 
  x: 0.0
  y: 0.0
  z: 0.0
linear_acceleration_covariance: [-1.0, 0.0, 0.0, 0.0, 0.0, 0.0, 0.0, 0.0, 0.0]
---
header: 
  seq: 37
  stamp: 
    secs: 1661451404
    nsecs:  42638519
  frame_id: "imu_link"
orientation: 
  x: -0.014130257427527486
  y: -0.025135853986470266
  z: -0.0008700668435985325
  w: 0.9995837972141656
orientation_covariance: [0.017449999964008707, 0.0, 0.0, 0.0, 0.017449999964008707, 0.0, 0.0, 0.0, 0.15707999987357524]
angular_velocity: 
  x: -0.0010853367857635021
  y: 0.0028960630297660828
  z: -0.0009318316006101669
angular_velocity_covariance: [0.0004, 0.0, 0.0, 0.0, 0.0004, 0.0, 0.0, 0.0, 0.0004]
linear_acceleration: 
  x: 0.0
  y: 0.0
  z: 0.0
linear_acceleration_covariance: [-1.0, 0.0, 0.0, 0.0, 0.0, 0.0, 0.0, 0.0, 0.0]
---
header: 
  seq: 38
  stamp: 
    secs: 1661451404
    nsecs:  92562995
  frame_id: "imu_link"
orientation: 
  x: -0.01414700241814907
  y: -0.025064732811718837
  z: -0.0009377893001228557
  w: 0.999585285027189
orientation_covariance: [0.017449999964008707, 0.0, 0.0, 0.0, 0.017449999964008707, 0.0, 0.0, 0.0, 0.15707999987357524]
angular_velocity: 
  x: -0.000739430484827608
  y: 0.0028829951770603657
  z: -0.0026506886351853613
angular_velocity_covariance: [0.0004, 0.0, 0.0, 0.0, 0.0004, 0.0, 0.0, 0.0, 0.0004]
linear_acceleration: 
  x: 0.0
  y: 0.0
  z: 0.0
linear_acceleration_covariance: [-1.0, 0.0, 0.0, 0.0, 0.0, 0.0, 0.0, 0.0, 0.0]
---
header: 
  seq: 39
  stamp: 
    secs: 1661451404
    nsecs: 142437194
  frame_id: "imu_link"
orientation: 
  x: -0.014215789827928389
  y: -0.025031397347075466
  z: -0.000989656656665439
  w: 0.9995850944497537
orientation_covariance: [0.017449999964008707, 0.0, 0.0, 0.0, 0.017449999964008707, 0.0, 0.0, 0.0, 0.15707999987357524]
angular_velocity: 
  x: -0.002803504234179855
  y: 0.001359074842184782
  z: -0.0019860207103192806
angular_velocity_covariance: [0.0004, 0.0, 0.0, 0.0, 0.0004, 0.0, 0.0, 0.0, 0.0004]
linear_acceleration: 
  x: 0.0
  y: 0.0
  z: 0.0
linear_acceleration_covariance: [-1.0, 0.0, 0.0, 0.0, 0.0, 0.0, 0.0, 0.0, 0.0]
---
header: 
  seq: 40
  stamp: 
    secs: 1661451404
    nsecs: 193295707
  frame_id: "imu_link"
orientation: 
  x: -0.014226849958390762
  y: -0.024984883189607118
  z: -0.00107577801845084
  w: 0.9995860118338582
orientation_covariance: [0.017449999964008707, 0.0, 0.0, 0.0, 0.017449999964008707, 0.0, 0.0, 0.0, 0.15707999987357524]
angular_velocity: 
  x: -0.0005298283067531885
  y: 0.0019096117466688156
  z: -0.0034058729652315383
angular_velocity_covariance: [0.0004, 0.0, 0.0, 0.0, 0.0004, 0.0, 0.0, 0.0, 0.0004]
linear_acceleration: 
  x: 0.0
  y: 0.0
  z: 0.0
linear_acceleration_covariance: [-1.0, 0.0, 0.0, 0.0, 0.0, 0.0, 0.0, 0.0, 0.0]
---
header: 
  seq: 41
  stamp: 
    secs: 1661451404
    nsecs: 242797481
  frame_id: "imu_link"
orientation: 
  x: -0.014291135476526329
  y: -0.02491840732489142
  z: -0.0011453970452666624
  w: 0.9995866768263726
orientation_covariance: [0.017449999964008707, 0.0, 0.0, 0.0, 0.017449999964008707, 0.0, 0.0, 0.0, 0.15707999987357524]
angular_velocity: 
  x: -0.0026425113901495934
  y: 0.0026954221539199352
  z: -0.0026815163437277083
angular_velocity_covariance: [0.0004, 0.0, 0.0, 0.0, 0.0004, 0.0, 0.0, 0.0, 0.0004]
linear_acceleration: 
  x: 0.0
  y: 0.0
  z: 0.0
linear_acceleration_covariance: [-1.0, 0.0, 0.0, 0.0, 0.0, 0.0, 0.0, 0.0, 0.0]
---
header: 
  seq: 42
  stamp: 
    secs: 1661451404
    nsecs: 293058927
  frame_id: "imu_link"
orientation: 
  x: -0.014298778114404075
  y: -0.0248530275590356
  z: -0.0011882444212581353
  w: 0.9995881452082052
orientation_covariance: [0.017449999964008707, 0.0, 0.0, 0.0, 0.017449999964008707, 0.0, 0.0, 0.0, 0.15707999987357524]
angular_velocity: 
  x: -0.0003505926579236984
  y: 0.0026398047339171176
  z: -0.0016681316774338484
angular_velocity_covariance: [0.0004, 0.0, 0.0, 0.0, 0.0004, 0.0, 0.0, 0.0, 0.0004]
linear_acceleration: 
  x: 0.0
  y: 0.0
  z: 0.0
linear_acceleration_covariance: [-1.0, 0.0, 0.0, 0.0, 0.0, 0.0, 0.0, 0.0, 0.0]
---
header: 
  seq: 43
  stamp: 
    secs: 1661451404
    nsecs: 342954622
  frame_id: "imu_link"
orientation: 
  x: -0.014297992571933859
  y: -0.024781186784690188
  z: -0.0012178684440804681
  w: 0.9995899044040052
orientation_covariance: [0.017449999964008707, 0.0, 0.0, 0.0, 0.017449999964008707, 0.0, 0.0, 0.0, 0.15707999987357524]
angular_velocity: 
  x: -2.8832113230237155e-07
  y: 0.0028908227104693656
  z: -0.0011440733214840295
angular_velocity_covariance: [0.0004, 0.0, 0.0, 0.0, 0.0004, 0.0, 0.0, 0.0, 0.0004]
linear_acceleration: 
  x: 0.0
  y: 0.0
  z: 0.0
linear_acceleration_covariance: [-1.0, 0.0, 0.0, 0.0, 0.0, 0.0, 0.0, 0.0, 0.0]
---
header: 
  seq: 44
  stamp: 
    secs: 1661451404
    nsecs: 393097890
  frame_id: "imu_link"
orientation: 
  x: -0.01433125435169348
  y: -0.024730153443532604
  z: -0.0012154633550592623
  w: 0.9995906948887624
orientation_covariance: [0.017449999964008707, 0.0, 0.0, 0.0, 0.017449999964008707, 0.0, 0.0, 0.0, 0.15707999987357524]
angular_velocity: 
  x: -0.0013294868404045703
  y: 0.002038245089352131
  z: 0.00015837063256185505
angular_velocity_covariance: [0.0004, 0.0, 0.0, 0.0, 0.0004, 0.0, 0.0, 0.0, 0.0004]
linear_acceleration: 
  x: 0.0
  y: 0.0
  z: 0.0
linear_acceleration_covariance: [-1.0, 0.0, 0.0, 0.0, 0.0, 0.0, 0.0, 0.0, 0.0]
---
header: 
  seq: 45
  stamp: 
    secs: 1661451404
    nsecs: 442819877
  frame_id: "imu_link"
orientation: 
  x: -0.014328945020858104
  y: -0.02470525653760814
  z: -0.0012395358023665987
  w: 0.999591314080407
orientation_covariance: [0.017449999964008707, 0.0, 0.0, 0.0, 0.017449999964008707, 0.0, 0.0, 0.0, 0.15707999987357524]
angular_velocity: 
  x: 6.77468560752459e-05
  y: 0.0010096662444993856
  z: -0.0009504979243502021
angular_velocity_covariance: [0.0004, 0.0, 0.0, 0.0, 0.0004, 0.0, 0.0, 0.0, 0.0004]
linear_acceleration: 
  x: 0.0
  y: 0.0
  z: 0.0
linear_acceleration_covariance: [-1.0, 0.0, 0.0, 0.0, 0.0, 0.0, 0.0, 0.0, 0.0]
---
header: 
  seq: 46
  stamp: 
    secs: 1661451404
    nsecs: 493269106
  frame_id: "imu_link"
orientation: 
  x: -0.014315159481749065
  y: -0.02464329850676157
  z: -0.0013207038944471582
  w: 0.9995929370443459
orientation_covariance: [0.017449999964008707, 0.0, 0.0, 0.0, 0.017449999964008707, 0.0, 0.0, 0.0, 0.15707999987357524]
angular_velocity: 
  x: 0.00046877321437932556
  y: 0.002526224125176668
  z: -0.0032234273385256533
angular_velocity_covariance: [0.0004, 0.0, 0.0, 0.0, 0.0004, 0.0, 0.0, 0.0, 0.0004]
linear_acceleration: 
  x: 0.0
  y: 0.0
  z: 0.0
linear_acceleration_covariance: [-1.0, 0.0, 0.0, 0.0, 0.0, 0.0, 0.0, 0.0, 0.0]
---
header: 
  seq: 47
  stamp: 
    secs: 1661451404
    nsecs: 543326887
  frame_id: "imu_link"
orientation: 
  x: -0.014333377648377896
  y: -0.02461371997682097
  z: -0.001303813370685717
  w: 0.999593426921559
orientation_covariance: [0.017449999964008707, 0.0, 0.0, 0.0, 0.017449999964008707, 0.0, 0.0, 0.0, 0.15707999987357524]
angular_velocity: 
  x: -0.0007130246376618743
  y: 0.0011726698139682414
  z: 0.0007102629751898349
angular_velocity_covariance: [0.0004, 0.0, 0.0, 0.0, 0.0004, 0.0, 0.0, 0.0, 0.0004]
linear_acceleration: 
  x: 0.0
  y: 0.0
  z: 0.0
linear_acceleration_covariance: [-1.0, 0.0, 0.0, 0.0, 0.0, 0.0, 0.0, 0.0, 0.0]
---
header: 
  seq: 48
  stamp: 
    secs: 1661451404
    nsecs: 592809671
  frame_id: "imu_link"
orientation: 
  x: -0.014321080080257568
  y: -0.02455932327371453
  z: -0.0013644111690918797
  w: 0.9995948602748183
orientation_covariance: [0.017449999964008707, 0.0, 0.0, 0.0, 0.017449999964008707, 0.0, 0.0, 0.0, 0.15707999987357524]
angular_velocity: 
  x: 0.0004299518186599016
  y: 0.002211925340816379
  z: -0.002403787337243557
angular_velocity_covariance: [0.0004, 0.0, 0.0, 0.0, 0.0004, 0.0, 0.0, 0.0, 0.0004]
linear_acceleration: 
  x: 0.0
  y: 0.0
  z: 0.0
linear_acceleration_covariance: [-1.0, 0.0, 0.0, 0.0, 0.0, 0.0, 0.0, 0.0, 0.0]
---
header: 
  seq: 49
  stamp: 
    secs: 1661451404
    nsecs: 643230703
  frame_id: "imu_link"
orientation: 
  x: -0.014350162152395261
  y: -0.02452840028230896
  z: -0.001364028668138929
  w: 0.9995952029954843
orientation_covariance: [0.017449999964008707, 0.0, 0.0, 0.0, 0.017449999964008707, 0.0, 0.0, 0.0, 0.15707999987357524]
angular_velocity: 
  x: -0.0011640078155323865
  y: 0.0012352307094261052
  z: 6.161168857943267e-05
angular_velocity_covariance: [0.0004, 0.0, 0.0, 0.0, 0.0004, 0.0, 0.0, 0.0, 0.0004]
linear_acceleration: 
  x: 0.0
  y: 0.0
  z: 0.0
linear_acceleration_covariance: [-1.0, 0.0, 0.0, 0.0, 0.0, 0.0, 0.0, 0.0, 0.0]
---
header: 
  seq: 50
  stamp: 
    secs: 1661451404
    nsecs: 693320691
  frame_id: "imu_link"
orientation: 
  x: -0.014364612249257164
  y: -0.02449707509551549
  z: -0.0014372356808528264
  w: 0.9995956610451502
orientation_covariance: [0.017449999964008707, 0.0, 0.0, 0.0, 0.017449999964008707, 0.0, 0.0, 0.0, 0.15707999987357524]
angular_velocity: 
  x: -0.0006511656101793051
  y: 0.0012939606094732883
  z: -0.002894922159612179
angular_velocity_covariance: [0.0004, 0.0, 0.0, 0.0, 0.0004, 0.0, 0.0, 0.0, 0.0004]
linear_acceleration: 
  x: 0.0
  y: 0.0
  z: 0.0
linear_acceleration_covariance: [-1.0, 0.0, 0.0, 0.0, 0.0, 0.0, 0.0, 0.0, 0.0]
---
header: 
  seq: 51
  stamp: 
    secs: 1661451404
    nsecs: 743263873
  frame_id: "imu_link"
orientation: 
  x: -0.014366989091781496
  y: -0.024447178095327336
  z: -0.0014722637879019133
  w: 0.9995967974873421
orientation_covariance: [0.017449999964008707, 0.0, 0.0, 0.0, 0.017449999964008707, 0.0, 0.0, 0.0, 0.15707999987357524]
angular_velocity: 
  x: -0.00013154470070730898
  y: 0.002015679143369198
  z: -0.0013694993685930967
angular_velocity_covariance: [0.0004, 0.0, 0.0, 0.0, 0.0004, 0.0, 0.0, 0.0, 0.0004]
linear_acceleration: 
  x: 0.0
  y: 0.0
  z: 0.0
linear_acceleration_covariance: [-1.0, 0.0, 0.0, 0.0, 0.0, 0.0, 0.0, 0.0, 0.0]
---
header: 
  seq: 52
  stamp: 
    secs: 1661451404
    nsecs: 792742816
  frame_id: "imu_link"
orientation: 
  x: -0.014399827508949279
  y: -0.024411206860661557
  z: -0.0015555441792095405
  w: 0.99959707794172
orientation_covariance: [0.017449999964008707, 0.0, 0.0, 0.0, 0.017449999964008707, 0.0, 0.0, 0.0, 0.15707999987357524]
angular_velocity: 
  x: -0.001396500738337636
  y: 0.0014844980323687198
  z: -0.0032770736142992973
angular_velocity_covariance: [0.0004, 0.0, 0.0, 0.0, 0.0004, 0.0, 0.0, 0.0, 0.0004]
linear_acceleration: 
  x: 0.0
  y: 0.0
  z: 0.0
linear_acceleration_covariance: [-1.0, 0.0, 0.0, 0.0, 0.0, 0.0, 0.0, 0.0, 0.0]
---
header: 
  seq: 53
  stamp: 
    secs: 1661451404
    nsecs: 843205729
  frame_id: "imu_link"
orientation: 
  x: -0.014374080822420454
  y: -0.02438891278697981
  z: -0.0015451437161199421
  w: 0.9995980088337891
orientation_covariance: [0.017449999964008707, 0.0, 0.0, 0.0, 0.017449999964008707, 0.0, 0.0, 0.0, 0.15707999987357524]
angular_velocity: 
  x: 0.0010387540096417072
  y: 0.0008876799256540836
  z: 0.00040360173443332314
angular_velocity_covariance: [0.0004, 0.0, 0.0, 0.0, 0.0004, 0.0, 0.0, 0.0, 0.0004]
linear_acceleration: 
  x: 0.0
  y: 0.0
  z: 0.0
linear_acceleration_covariance: [-1.0, 0.0, 0.0, 0.0, 0.0, 0.0, 0.0, 0.0, 0.0]
---
header: 
  seq: 54
  stamp: 
    secs: 1661451404
    nsecs: 893325338
  frame_id: "imu_link"
orientation: 
  x: -0.014396957768632857
  y: -0.024319479243591634
  z: -0.0015845509332230855
  w: 0.9995993095909324
orientation_covariance: [0.017449999964008707, 0.0, 0.0, 0.0, 0.017449999964008707, 0.0, 0.0, 0.0, 0.15707999987357524]
angular_velocity: 
  x: -0.0009567015222273768
  y: 0.002798686735332012
  z: -0.0015133366687223317
angular_velocity_covariance: [0.0004, 0.0, 0.0, 0.0, 0.0004, 0.0, 0.0, 0.0, 0.0004]
linear_acceleration: 
  x: 0.0
  y: 0.0
  z: 0.0
linear_acceleration_covariance: [-1.0, 0.0, 0.0, 0.0, 0.0, 0.0, 0.0, 0.0, 0.0]
---
header: 
  seq: 55
  stamp: 
    secs: 1661451404
    nsecs: 943173976
  frame_id: "imu_link"
orientation: 
  x: -0.01441760207548418
  y: -0.02429849290207377
  z: -0.0016863604819777407
  w: 0.9995993558328287
orientation_covariance: [0.017449999964008707, 0.0, 0.0, 0.0, 0.017449999964008707, 0.0, 0.0, 0.0, 0.15707999987357524]
angular_velocity: 
  x: -0.0009259872022084893
  y: 0.0008965374436229467
  z: -0.004038600251078606
angular_velocity_covariance: [0.0004, 0.0, 0.0, 0.0, 0.0004, 0.0, 0.0, 0.0, 0.0004]
linear_acceleration: 
  x: 0.0
  y: 0.0
  z: 0.0
linear_acceleration_covariance: [-1.0, 0.0, 0.0, 0.0, 0.0, 0.0, 0.0, 0.0, 0.0]
---
header: 
  seq: 56
  stamp: 
    secs: 1661451404
    nsecs: 993036358
  frame_id: "imu_link"
orientation: 
  x: -0.01439350281482935
  y: -0.02427798435620777
  z: -0.0016651411999509757
  w: 0.999600237023333
orientation_covariance: [0.017449999964008707, 0.0, 0.0, 0.0, 0.017449999964008707, 0.0, 0.0, 0.0, 0.15707999987357524]
angular_velocity: 
  x: 0.0009835982928052547
  y: 0.0008103536674752831
  z: 0.0008369127172045411
angular_velocity_covariance: [0.0004, 0.0, 0.0, 0.0, 0.0004, 0.0, 0.0, 0.0, 0.0004]
linear_acceleration: 
  x: 0.0
  y: 0.0
  z: 0.0
linear_acceleration_covariance: [-1.0, 0.0, 0.0, 0.0, 0.0, 0.0, 0.0, 0.0, 0.0]
---
header: 
  seq: 57
  stamp: 
    secs: 1661451405
    nsecs:  43261588
  frame_id: "imu_link"
orientation: 
  x: -0.014375318667102609
  y: -0.024206874468770064
  z: -0.001809944048515103
  w: 0.9996019715587869
orientation_covariance: [0.017449999964008707, 0.0, 0.0, 0.0, 0.017449999964008707, 0.0, 0.0, 0.0, 0.15707999987357524]
angular_velocity: 
  x: 0.0005826825508847833
  y: 0.0029296656139194965
  z: -0.005766418296843768
angular_velocity_covariance: [0.0004, 0.0, 0.0, 0.0, 0.0004, 0.0, 0.0, 0.0, 0.0004]
linear_acceleration: 
  x: 0.0
  y: 0.0
  z: 0.0
linear_acceleration_covariance: [-1.0, 0.0, 0.0, 0.0, 0.0, 0.0, 0.0, 0.0, 0.0]
---
header: 
  seq: 58
  stamp: 
    secs: 1661451405
    nsecs:  92874605
  frame_id: "imu_link"
orientation: 
  x: -0.014363258559890166
  y: -0.02417061374428609
  z: -0.00166350671111587
  w: 0.9996032767954436
orientation_covariance: [0.017449999964008707, 0.0, 0.0, 0.0, 0.017449999964008707, 0.0, 0.0, 0.0, 0.15707999987357524]
angular_velocity: 
  x: 0.0006221297080628575
  y: 0.0013675244990736246
  z: 0.005864430684596301
angular_velocity_covariance: [0.0004, 0.0, 0.0, 0.0, 0.0004, 0.0, 0.0, 0.0, 0.0004]
linear_acceleration: 
  x: 0.0
  y: 0.0
  z: 0.0
linear_acceleration_covariance: [-1.0, 0.0, 0.0, 0.0, 0.0, 0.0, 0.0, 0.0, 0.0]
---
header: 
  seq: 59
  stamp: 
    secs: 1661451405
    nsecs: 143029489
  frame_id: "imu_link"
orientation: 
  x: -0.014322820144903419
  y: -0.024107221513058302
  z: -0.0017563032546135259
  w: 0.9996052291244253
orientation_covariance: [0.017449999964008707, 0.0, 0.0, 0.0, 0.017449999964008707, 0.0, 0.0, 0.0, 0.15707999987357524]
angular_velocity: 
  x: 0.0015239146305248143
  y: 0.0025926828384399414
  z: -0.003712945617735386
angular_velocity_covariance: [0.0004, 0.0, 0.0, 0.0, 0.0004, 0.0, 0.0, 0.0, 0.0004]
linear_acceleration: 
  x: 0.0
  y: 0.0
  z: 0.0
linear_acceleration_covariance: [-1.0, 0.0, 0.0, 0.0, 0.0, 0.0, 0.0, 0.0, 0.0]
---
header: 
  seq: 60
  stamp: 
    secs: 1661451405
    nsecs: 192594331
  frame_id: "imu_link"
orientation: 
  x: -0.014369621132054306
  y: -0.02412317828372274
  z: -0.0018004675685518684
  w: 0.9996040939164602
orientation_covariance: [0.017449999964008707, 0.0, 0.0, 0.0, 0.017449999964008707, 0.0, 0.0, 0.0, 0.15707999987357524]
angular_velocity: 
  x: -0.001913235755637288
  y: -0.0006173577276058496
  z: -0.0017299600876867771
angular_velocity_covariance: [0.0004, 0.0, 0.0, 0.0, 0.0004, 0.0, 0.0, 0.0, 0.0004]
linear_acceleration: 
  x: 0.0
  y: 0.0
  z: 0.0
linear_acceleration_covariance: [-1.0, 0.0, 0.0, 0.0, 0.0, 0.0, 0.0, 0.0, 0.0]
---
header: 
  seq: 61
  stamp: 
    secs: 1661451405
    nsecs: 242454610
  frame_id: "imu_link"
orientation: 
  x: -0.014239427504382136
  y: -0.02406482431206741
  z: -0.001486726254480904
  w: 0.9996078794108321
orientation_covariance: [0.017449999964008707, 0.0, 0.0, 0.0, 0.017449999964008707, 0.0, 0.0, 0.0, 0.15707999987357524]
angular_velocity: 
  x: 0.005506463348865509
  y: 0.0021662022918462753
  z: 0.01245288271456957
angular_velocity_covariance: [0.0004, 0.0, 0.0, 0.0, 0.0004, 0.0, 0.0, 0.0, 0.0004]
linear_acceleration: 
  x: 0.0
  y: 0.0
  z: 0.0
linear_acceleration_covariance: [-1.0, 0.0, 0.0, 0.0, 0.0, 0.0, 0.0, 0.0, 0.0]
---
header: 
  seq: 62
  stamp: 
    secs: 1661451405
    nsecs: 292991001
  frame_id: "imu_link"
orientation: 
  x: -0.01435980716601066
  y: -0.02395195151151446
  z: -0.0019468410208050252
  w: 0.9996080780820974
orientation_covariance: [0.017449999964008707, 0.0, 0.0, 0.0, 0.017449999964008707, 0.0, 0.0, 0.0, 0.15707999987357524]
angular_velocity: 
  x: -0.005262941587716342
  y: 0.004768069833517075
  z: -0.018217219039797786
angular_velocity_covariance: [0.0004, 0.0, 0.0, 0.0, 0.0004, 0.0, 0.0, 0.0, 0.0004]
linear_acceleration: 
  x: 0.0
  y: 0.0
  z: 0.0
linear_acceleration_covariance: [-1.0, 0.0, 0.0, 0.0, 0.0, 0.0, 0.0, 0.0, 0.0]
---
header: 
  seq: 63
  stamp: 
    secs: 1661451405
    nsecs: 343156124
  frame_id: "imu_link"
orientation: 
  x: -0.01448868865219453
  y: -0.0238958778991802
  z: -0.001776540019731565
  w: 0.9996078775330483
orientation_covariance: [0.017449999964008707, 0.0, 0.0, 0.0, 0.017449999964008707, 0.0, 0.0, 0.0, 0.15707999987357524]
angular_velocity: 
  x: -0.004994315095245838
  y: 0.0021339810919016604
  z: 0.006965060252696277
angular_velocity_covariance: [0.0004, 0.0, 0.0, 0.0, 0.0004, 0.0, 0.0, 0.0, 0.0004]
linear_acceleration: 
  x: 0.0
  y: 0.0
  z: 0.0
linear_acceleration_covariance: [-1.0, 0.0, 0.0, 0.0, 0.0, 0.0, 0.0, 0.0, 0.0]
---
header: 
  seq: 64
  stamp: 
    secs: 1661451405
    nsecs: 392707046
  frame_id: "imu_link"
orientation: 
  x: -0.014308734227034797
  y: -0.023861424690133862
  z: -0.001907568555106565
  w: 0.9996110512188152
orientation_covariance: [0.017449999964008707, 0.0, 0.0, 0.0, 0.017449999964008707, 0.0, 0.0, 0.0, 0.15707999987357524]
angular_velocity: 
  x: 0.007069481536746025
  y: 0.0014693496050313117
  z: -0.005390887148678303
angular_velocity_covariance: [0.0004, 0.0, 0.0, 0.0, 0.0004, 0.0, 0.0, 0.0, 0.0004]
linear_acceleration: 
  x: 0.0
  y: 0.0
  z: 0.0
linear_acceleration_covariance: [-1.0, 0.0, 0.0, 0.0, 0.0, 0.0, 0.0, 0.0, 0.0]
---
header: 
  seq: 65
  stamp: 
    secs: 1661451405
    nsecs: 443090995
  frame_id: "imu_link"
orientation: 
  x: -0.014395160631257009
  y: -0.023832424947094668
  z: -0.0018976686734407844
  w: 0.9996105210156341
orientation_covariance: [0.017449999964008707, 0.0, 0.0, 0.0, 0.017449999964008707, 0.0, 0.0, 0.0, 0.15707999987357524]
angular_velocity: 
  x: -0.003448920324444771
  y: 0.0011469938326627016
  z: 0.0004948718124069275
angular_velocity_covariance: [0.0004, 0.0, 0.0, 0.0, 0.0004, 0.0, 0.0, 0.0, 0.0004]
linear_acceleration: 
  x: 0.0
  y: 0.0
  z: 0.0
linear_acceleration_covariance: [-1.0, 0.0, 0.0, 0.0, 0.0, 0.0, 0.0, 0.0, 0.0]
---
header: 
  seq: 66
  stamp: 
    secs: 1661451405
    nsecs: 492872342
  frame_id: "imu_link"
orientation: 
  x: -0.01445912358667909
  y: -0.023807596250028373
  z: -0.00201184095196647
  w: 0.9996099662377746
orientation_covariance: [0.017449999964008707, 0.0, 0.0, 0.0, 0.017449999964008707, 0.0, 0.0, 0.0, 0.15707999987357524]
angular_velocity: 
  x: -0.002668660134077072
  y: 0.0010531482985243203
  z: -0.004489872604608536
angular_velocity_covariance: [0.0004, 0.0, 0.0, 0.0, 0.0004, 0.0, 0.0, 0.0, 0.0004]
linear_acceleration: 
  x: 0.0
  y: 0.0
  z: 0.0
linear_acceleration_covariance: [-1.0, 0.0, 0.0, 0.0, 0.0, 0.0, 0.0, 0.0, 0.0]
---
header: 
  seq: 67
  stamp: 
    secs: 1661451405
    nsecs: 542789986
  frame_id: "imu_link"
orientation: 
  x: -0.014329835233246963
  y: -0.023755695727771545
  z: -0.0019868677476465807
  w: 0.9996131127087273
orientation_covariance: [0.017449999964008707, 0.0, 0.0, 0.0, 0.017449999964008707, 0.0, 0.0, 0.0, 0.15707999987357524]
angular_velocity: 
  x: 0.005191001575440169
  y: 0.002074006013572216
  z: 0.0009056876879185438
angular_velocity_covariance: [0.0004, 0.0, 0.0, 0.0, 0.0004, 0.0, 0.0, 0.0, 0.0004]
linear_acceleration: 
  x: 0.0
  y: 0.0
  z: 0.0
linear_acceleration_covariance: [-1.0, 0.0, 0.0, 0.0, 0.0, 0.0, 0.0, 0.0, 0.0]
---
header: 
  seq: 68
  stamp: 
    secs: 1661451405
    nsecs: 593005724
  frame_id: "imu_link"
orientation: 
  x: -0.01445123350841634
  y: -0.023717085158905294
  z: -0.0019465686595121984
  w: 0.9996123611641186
orientation_covariance: [0.017449999964008707, 0.0, 0.0, 0.0, 0.017449999964008707, 0.0, 0.0, 0.0, 0.15707999987357524]
angular_velocity: 
  x: -0.004819539375603199
  y: 0.001510353176854551
  z: 0.0017487641889601946
angular_velocity_covariance: [0.0004, 0.0, 0.0, 0.0, 0.0004, 0.0, 0.0, 0.0, 0.0004]
linear_acceleration: 
  x: 0.0
  y: 0.0
  z: 0.0
linear_acceleration_covariance: [-1.0, 0.0, 0.0, 0.0, 0.0, 0.0, 0.0, 0.0, 0.0]
---
header: 
  seq: 69
  stamp: 
    secs: 1661451405
    nsecs: 643154866
  frame_id: "imu_link"
orientation: 
  x: -0.014483192208153327
  y: -0.023696016003533535
  z: -0.0020326065876028828
  w: 0.9996122270558129
orientation_covariance: [0.017449999964008707, 0.0, 0.0, 0.0, 0.017449999964008707, 0.0, 0.0, 0.0, 0.15707999987357524]
angular_velocity: 
  x: -0.0013608734589070082
  y: 0.0008896279614418745
  z: -0.003397674066945911
angular_velocity_covariance: [0.0004, 0.0, 0.0, 0.0, 0.0004, 0.0, 0.0, 0.0, 0.0004]
linear_acceleration: 
  x: 0.0
  y: 0.0
  z: 0.0
linear_acceleration_covariance: [-1.0, 0.0, 0.0, 0.0, 0.0, 0.0, 0.0, 0.0, 0.0]
---
header: 
  seq: 70
  stamp: 
    secs: 1661451405
    nsecs: 692546426
  frame_id: "imu_link"
orientation: 
  x: -0.014416557898791881
  y: -0.023663886369672236
  z: -0.002002875545212676
  w: 0.9996140114213008
orientation_covariance: [0.017449999964008707, 0.0, 0.0, 0.0, 0.017449999964008707, 0.0, 0.0, 0.0, 0.15707999987357524]
angular_velocity: 
  x: 0.002690895926207304
  y: 0.001274347887374461
  z: 0.0011443635448813438
angular_velocity_covariance: [0.0004, 0.0, 0.0, 0.0, 0.0004, 0.0, 0.0, 0.0, 0.0004]
linear_acceleration: 
  x: 0.0
  y: 0.0
  z: 0.0
linear_acceleration_covariance: [-1.0, 0.0, 0.0, 0.0, 0.0, 0.0, 0.0, 0.0, 0.0]
---
header: 
  seq: 71
  stamp: 
    secs: 1661451405
    nsecs: 742772274
  frame_id: "imu_link"
orientation: 
  x: -0.014488430330925063
  y: -0.02356804840296786
  z: -0.0020734507193049872
  w: 0.999615092564701
orientation_covariance: [0.017449999964008707, 0.0, 0.0, 0.0, 0.017449999964008707, 0.0, 0.0, 0.0, 0.15707999987357524]
angular_velocity: 
  x: -0.002947654575109482
  y: 0.003867986844852567
  z: -0.002698520896956325
angular_velocity_covariance: [0.0004, 0.0, 0.0, 0.0, 0.0004, 0.0, 0.0, 0.0, 0.0004]
linear_acceleration: 
  x: 0.0
  y: 0.0
  z: 0.0
linear_acceleration_covariance: [-1.0, 0.0, 0.0, 0.0, 0.0, 0.0, 0.0, 0.0, 0.0]
---
header: 
  seq: 72
  stamp: 
    secs: 1661451405
    nsecs: 792820279
  frame_id: "imu_link"
orientation: 
  x: -0.014546370852319941
  y: -0.023550952152889867
  z: -0.0021731118570807763
  w: 0.9996144423389329
orientation_covariance: [0.017449999964008707, 0.0, 0.0, 0.0, 0.017449999964008707, 0.0, 0.0, 0.0, 0.15707999987357524]
angular_velocity: 
  x: -0.002412506146356464
  y: 0.0007361603202298284
  z: -0.00392042612656951
angular_velocity_covariance: [0.0004, 0.0, 0.0, 0.0, 0.0004, 0.0, 0.0, 0.0, 0.0004]
linear_acceleration: 
  x: 0.0
  y: 0.0
  z: 0.0
linear_acceleration_covariance: [-1.0, 0.0, 0.0, 0.0, 0.0, 0.0, 0.0, 0.0, 0.0]
---
header: 
  seq: 73
  stamp: 
    secs: 1661451405
    nsecs: 843237812
  frame_id: "imu_link"
orientation: 
  x: -0.01455002792708962
  y: -0.0235088576741141
  z: -0.0021857533155920372
  w: 0.9996153524134285
orientation_covariance: [0.017449999964008707, 0.0, 0.0, 0.0, 0.017449999964008707, 0.0, 0.0, 0.0, 0.15707999987357524]
angular_velocity: 
  x: -0.00016120003419928253
  y: 0.001690964214503765
  z: -0.0004774479020852596
angular_velocity_covariance: [0.0004, 0.0, 0.0, 0.0, 0.0004, 0.0, 0.0, 0.0, 0.0004]
linear_acceleration: 
  x: 0.0
  y: 0.0
  z: 0.0
linear_acceleration_covariance: [-1.0, 0.0, 0.0, 0.0, 0.0, 0.0, 0.0, 0.0, 0.0]
---
header: 
  seq: 74
  stamp: 
    secs: 1661451405
    nsecs: 892987248
  frame_id: "imu_link"
orientation: 
  x: -0.014533498985872053
  y: -0.023400225741722878
  z: -0.0022638960748792257
  w: 0.9996179678342252
orientation_covariance: [0.017449999964008707, 0.0, 0.0, 0.0, 0.017449999964008707, 0.0, 0.0, 0.0, 0.15707999987357524]
angular_velocity: 
  x: 0.0005796540644951166
  y: 0.004392759874463081
  z: -0.0030765759292989974
angular_velocity_covariance: [0.0004, 0.0, 0.0, 0.0, 0.0004, 0.0, 0.0, 0.0, 0.0004]
linear_acceleration: 
  x: 0.0
  y: 0.0
  z: 0.0
linear_acceleration_covariance: [-1.0, 0.0, 0.0, 0.0, 0.0, 0.0, 0.0, 0.0, 0.0]
---
header: 
  seq: 75
  stamp: 
    secs: 1661451405
    nsecs: 942903849
  frame_id: "imu_link"
orientation: 
  x: -0.014529860983789335
  y: -0.02336595385916452
  z: -0.002374202353367552
  w: 0.9996185665058591
orientation_covariance: [0.017449999964008707, 0.0, 0.0, 0.0, 0.017449999964008707, 0.0, 0.0, 0.0, 0.15707999987357524]
angular_velocity: 
  x: 3.946750075556338e-05
  y: 0.0014354585437104108
  z: -0.004393994342535735
angular_velocity_covariance: [0.0004, 0.0, 0.0, 0.0, 0.0004, 0.0, 0.0, 0.0, 0.0004]
linear_acceleration: 
  x: 0.0
  y: 0.0
  z: 0.0
linear_acceleration_covariance: [-1.0, 0.0, 0.0, 0.0, 0.0, 0.0, 0.0, 0.0, 0.0]
---
header: 
  seq: 76
  stamp: 
    secs: 1661451405
    nsecs: 993501331
  frame_id: "imu_link"
orientation: 
  x: -0.014556924808301192
  y: -0.023336986626747852
  z: -0.002433023596343827
  w: 0.9996187080039509
orientation_covariance: [0.017449999964008707, 0.0, 0.0, 0.0, 0.017449999964008707, 0.0, 0.0, 0.0, 0.15707999987357524]
angular_velocity: 
  x: -0.0011397222988307476
  y: 0.001190108363516629
  z: -0.0023098052479326725
angular_velocity_covariance: [0.0004, 0.0, 0.0, 0.0, 0.0004, 0.0, 0.0, 0.0, 0.0004]
linear_acceleration: 
  x: 0.0
  y: 0.0
  z: 0.0
linear_acceleration_covariance: [-1.0, 0.0, 0.0, 0.0, 0.0, 0.0, 0.0, 0.0, 0.0]
---
header: 
  seq: 77
  stamp: 
    secs: 1661451406
    nsecs:  43269138
  frame_id: "imu_link"
orientation: 
  x: -0.014640016722767513
  y: -0.023210024494842812
  z: -0.0025623511500189084
  w: 0.9996201273633348
orientation_covariance: [0.017449999964008707, 0.0, 0.0, 0.0, 0.017449999964008707, 0.0, 0.0, 0.0, 0.15707999987357524]
angular_velocity: 
  x: -0.0034547424875199795
  y: 0.005145207978785038
  z: -0.00501953111961484
angular_velocity_covariance: [0.0004, 0.0, 0.0, 0.0, 0.0004, 0.0, 0.0, 0.0, 0.0004]
linear_acceleration: 
  x: 0.0
  y: 0.0
  z: 0.0
linear_acceleration_covariance: [-1.0, 0.0, 0.0, 0.0, 0.0, 0.0, 0.0, 0.0, 0.0]
---
header: 
  seq: 78
  stamp: 
    secs: 1661451406
    nsecs:  93307256
  frame_id: "imu_link"
orientation: 
  x: -0.014732690132617802
  y: -0.02321250047339659
  z: -0.002789689055208217
  w: 0.9996180997251921
orientation_covariance: [0.017449999964008707, 0.0, 0.0, 0.0, 0.017449999964008707, 0.0, 0.0, 0.0, 0.15707999987357524]
angular_velocity: 
  x: -0.003917588386684657
  y: 2.2540116333402693e-05
  z: -0.009005685336887838
angular_velocity_covariance: [0.0004, 0.0, 0.0, 0.0, 0.0004, 0.0, 0.0, 0.0, 0.0004]
linear_acceleration: 
  x: 0.0
  y: 0.0
  z: 0.0
linear_acceleration_covariance: [-1.0, 0.0, 0.0, 0.0, 0.0, 0.0, 0.0, 0.0, 0.0]
---
header: 
  seq: 79
  stamp: 
    secs: 1661451406
    nsecs: 143211616
  frame_id: "imu_link"
orientation: 
  x: -0.014610923054708664
  y: -0.02320603507226127
  z: -0.0025032047808201804
  w: 0.9996207955167499
orientation_covariance: [0.017449999964008707, 0.0, 0.0, 0.0, 0.017449999964008707, 0.0, 0.0, 0.0, 0.15707999987357524]
angular_velocity: 
  x: 0.005135749932378531
  y: 0.00010590447345748544
  z: 0.011346086859703064
angular_velocity_covariance: [0.0004, 0.0, 0.0, 0.0, 0.0004, 0.0, 0.0, 0.0, 0.0004]
linear_acceleration: 
  x: 0.0
  y: 0.0
  z: 0.0
linear_acceleration_covariance: [-1.0, 0.0, 0.0, 0.0, 0.0, 0.0, 0.0, 0.0, 0.0]
---
header: 
  seq: 80
  stamp: 
    secs: 1661451406
    nsecs: 192527765
  frame_id: "imu_link"
orientation: 
  x: -0.01453584644346573
  y: -0.02315548578248782
  z: -0.002609409307019864
  w: 0.9996227906712698
orientation_covariance: [0.017449999964008707, 0.0, 0.0, 0.0, 0.017449999964008707, 0.0, 0.0, 0.0, 0.15707999987357524]
angular_velocity: 
  x: 0.00289927120320499
  y: 0.0020926566794514656
  z: -0.0042865420691669
angular_velocity_covariance: [0.0004, 0.0, 0.0, 0.0, 0.0004, 0.0, 0.0, 0.0, 0.0004]
linear_acceleration: 
  x: 0.0
  y: 0.0
  z: 0.0
linear_acceleration_covariance: [-1.0, 0.0, 0.0, 0.0, 0.0, 0.0, 0.0, 0.0, 0.0]
---
header: 
  seq: 81
  stamp: 
    secs: 1661451406
    nsecs: 242540081
  frame_id: "imu_link"
orientation: 
  x: -0.014611647683750607
  y: -0.023193735450207652
  z: -0.0023979356375963727
  w: 0.9996213284501834
orientation_covariance: [0.017449999964008707, 0.0, 0.0, 0.0, 0.017449999964008707, 0.0, 0.0, 0.0, 0.15707999987357524]
angular_velocity: 
  x: -0.0028316909447312355
  y: -0.0016617581713944674
  z: 0.008503585122525694
angular_velocity_covariance: [0.0004, 0.0, 0.0, 0.0, 0.0004, 0.0, 0.0, 0.0, 0.0004]
linear_acceleration: 
  x: 0.0
  y: 0.0
  z: 0.0
linear_acceleration_covariance: [-1.0, 0.0, 0.0, 0.0, 0.0, 0.0, 0.0, 0.0, 0.0]
---
header: 
  seq: 82
  stamp: 
    secs: 1661451406
    nsecs: 293046024
  frame_id: "imu_link"
orientation: 
  x: -0.014490974830400013
  y: -0.0231964373320402
  z: -0.0023876848663793664
  w: 0.9996230469054543
orientation_covariance: [0.017449999964008707, 0.0, 0.0, 0.0, 0.017449999964008707, 0.0, 0.0, 0.0, 0.15707999987357524]
angular_velocity: 
  x: 0.00483560236170888
  y: -0.00010070596181321889
  z: 0.0002965111925732345
angular_velocity_covariance: [0.0004, 0.0, 0.0, 0.0, 0.0004, 0.0, 0.0, 0.0, 0.0004]
linear_acceleration: 
  x: 0.0
  y: 0.0
  z: 0.0
linear_acceleration_covariance: [-1.0, 0.0, 0.0, 0.0, 0.0, 0.0, 0.0, 0.0, 0.0]
---
header: 
  seq: 83
  stamp: 
    secs: 1661451406
    nsecs: 342950582
  frame_id: "imu_link"
orientation: 
  x: -0.014524394732243491
  y: -0.023052653245739876
  z: -0.0023549959169371104
  w: 0.9996259656142514
orientation_covariance: [0.017449999964008707, 0.0, 0.0, 0.0, 0.017449999964008707, 0.0, 0.0, 0.0, 0.15707999987357524]
angular_velocity: 
  x: -0.0013179498491808774
  y: 0.005729289725422859
  z: 0.0014216776471585035
angular_velocity_covariance: [0.0004, 0.0, 0.0, 0.0, 0.0004, 0.0, 0.0, 0.0, 0.0004]
linear_acceleration: 
  x: 0.0
  y: 0.0
  z: 0.0
linear_acceleration_covariance: [-1.0, 0.0, 0.0, 0.0, 0.0, 0.0, 0.0, 0.0, 0.0]
---
header: 
  seq: 84
  stamp: 
    secs: 1661451406
    nsecs: 392865337
  frame_id: "imu_link"
orientation: 
  x: -0.014815764045331898
  y: -0.022922713774525618
  z: -0.00284796868801274
  w: 0.9996233947859143
orientation_covariance: [0.017449999964008707, 0.0, 0.0, 0.0, 0.017449999964008707, 0.0, 0.0, 0.0, 0.15707999987357524]
angular_velocity: 
  x: -0.012118900194764137
  y: 0.005452540237456561
  z: -0.01936762034893036
angular_velocity_covariance: [0.0004, 0.0, 0.0, 0.0, 0.0004, 0.0, 0.0, 0.0, 0.0004]
linear_acceleration: 
  x: 0.0
  y: 0.0
  z: 0.0
linear_acceleration_covariance: [-1.0, 0.0, 0.0, 0.0, 0.0, 0.0, 0.0, 0.0, 0.0]
---
header: 
  seq: 85
  stamp: 
    secs: 1661451406
    nsecs: 442681500
  frame_id: "imu_link"
orientation: 
  x: -0.0147286000399382
  y: -0.0228639691022088
  z: -0.002452507670116007
  w: 0.9996270766960471
orientation_covariance: [0.017449999964008707, 0.0, 0.0, 0.0, 0.017449999964008707, 0.0, 0.0, 0.0, 0.15707999987357524]
angular_velocity: 
  x: 0.003843266284093261
  y: 0.002127921441569925
  z: 0.015767782926559448
angular_velocity_covariance: [0.0004, 0.0, 0.0, 0.0, 0.0004, 0.0, 0.0, 0.0, 0.0004]
linear_acceleration: 
  x: 0.0
  y: 0.0
  z: 0.0
linear_acceleration_covariance: [-1.0, 0.0, 0.0, 0.0, 0.0, 0.0, 0.0, 0.0, 0.0]
---
header: 
  seq: 86
  stamp: 
    secs: 1661451406
    nsecs: 492971886
  frame_id: "imu_link"
orientation: 
  x: -0.014650795125009096
  y: -0.022724360967393876
  z: -0.002789328037253529
  w: 0.9996305203773688
orientation_covariance: [0.017449999964008707, 0.0, 0.0, 0.0, 0.017449999964008707, 0.0, 0.0, 0.0, 0.15707999987357524]
angular_velocity: 
  x: 0.0027914042584598064
  y: 0.005791273433715106
  z: -0.013456325978040695
angular_velocity_covariance: [0.0004, 0.0, 0.0, 0.0, 0.0004, 0.0, 0.0, 0.0, 0.0004]
linear_acceleration: 
  x: 0.0
  y: 0.0
  z: 0.0
linear_acceleration_covariance: [-1.0, 0.0, 0.0, 0.0, 0.0, 0.0, 0.0, 0.0, 0.0]
---
header: 
  seq: 87
  stamp: 
    secs: 1661451406
    nsecs: 542803864
  frame_id: "imu_link"
orientation: 
  x: -0.014811832053760573
  y: -0.02270536545768432
  z: -0.0025850213407020498
  w: 0.99962912806466
orientation_covariance: [0.017449999964008707, 0.0, 0.0, 0.0, 0.017449999964008707, 0.0, 0.0, 0.0, 0.15707999987357524]
angular_velocity: 
  x: -0.0062563661485910416
  y: 0.000620619219262153
  z: 0.008326605893671514
angular_velocity_covariance: [0.0004, 0.0, 0.0, 0.0, 0.0004, 0.0, 0.0, 0.0, 0.0004]
linear_acceleration: 
  x: 0.0
  y: 0.0
  z: 0.0
linear_acceleration_covariance: [-1.0, 0.0, 0.0, 0.0, 0.0, 0.0, 0.0, 0.0, 0.0]
---
header: 
  seq: 88
  stamp: 
    secs: 1661451406
    nsecs: 592692305
  frame_id: "imu_link"
orientation: 
  x: -0.014759944013286579
  y: -0.02268357804923216
  z: -0.0027800720114170715
  w: 0.9996298667703063
orientation_covariance: [0.017449999964008707, 0.0, 0.0, 0.0, 0.017449999964008707, 0.0, 0.0, 0.0, 0.15707999987357524]
angular_velocity: 
  x: 0.001895801047794521
  y: 0.0009926296770572662
  z: -0.00783327128738165
angular_velocity_covariance: [0.0004, 0.0, 0.0, 0.0, 0.0004, 0.0, 0.0, 0.0, 0.0004]
linear_acceleration: 
  x: 0.0
  y: 0.0
  z: 0.0
linear_acceleration_covariance: [-1.0, 0.0, 0.0, 0.0, 0.0, 0.0, 0.0, 0.0, 0.0]
---
header: 
  seq: 89
  stamp: 
    secs: 1661451406
    nsecs: 642722260
  frame_id: "imu_link"
orientation: 
  x: -0.01472539320642836
  y: -0.022596693375349055
  z: -0.0026984766292924324
  w: 0.9996325677304124
orientation_covariance: [0.017449999964008707, 0.0, 0.0, 0.0, 0.017449999964008707, 0.0, 0.0, 0.0, 0.15707999987357524]
angular_velocity: 
  x: 0.0014475394273176791
  y: 0.003432068275287748
  z: 0.003282836638391018
angular_velocity_covariance: [0.0004, 0.0, 0.0, 0.0, 0.0004, 0.0, 0.0, 0.0, 0.0004]
linear_acceleration: 
  x: 0.0
  y: 0.0
  z: 0.0
linear_acceleration_covariance: [-1.0, 0.0, 0.0, 0.0, 0.0, 0.0, 0.0, 0.0, 0.0]
---
header: 
  seq: 90
  stamp: 
    secs: 1661451406
    nsecs: 693083769
  frame_id: "imu_link"
orientation: 
  x: -0.014827989314656743
  y: -0.02253356466171447
  z: -0.0027846682776713995
  w: 0.9996322397857644
orientation_covariance: [0.017449999964008707, 0.0, 0.0, 0.0, 0.017449999964008707, 0.0, 0.0, 0.0, 0.15707999987357524]
angular_velocity: 
  x: -0.0041873580776155
  y: 0.0025637554936110973
  z: -0.00331652001477778
angular_velocity_covariance: [0.0004, 0.0, 0.0, 0.0, 0.0004, 0.0, 0.0, 0.0, 0.0004]
linear_acceleration: 
  x: 0.0
  y: 0.0
  z: 0.0
linear_acceleration_covariance: [-1.0, 0.0, 0.0, 0.0, 0.0, 0.0, 0.0, 0.0, 0.0]
---
header: 
  seq: 91
  stamp: 
    secs: 1661451406
    nsecs: 742914527
  frame_id: "imu_link"
orientation: 
  x: -0.014738056519474841
  y: -0.022520216288418635
  z: -0.002720038443413518
  w: 0.9996340485093622
orientation_covariance: [0.017449999964008707, 0.0, 0.0, 0.0, 0.017449999964008707, 0.0, 0.0, 0.0, 0.15707999987357524]
angular_velocity: 
  x: 0.0036539903376251463
  y: 0.000506799784488976
  z: 0.002511305268853903
angular_velocity_covariance: [0.0004, 0.0, 0.0, 0.0, 0.0004, 0.0, 0.0, 0.0, 0.0004]
linear_acceleration: 
  x: 0.0
  y: 0.0
  z: 0.0
linear_acceleration_covariance: [-1.0, 0.0, 0.0, 0.0, 0.0, 0.0, 0.0, 0.0, 0.0]
---
header: 
  seq: 92
  stamp: 
    secs: 1661451406
    nsecs: 792600483
  frame_id: "imu_link"
orientation: 
  x: -0.014750937487250154
  y: -0.022496687593109684
  z: -0.00279043054928909
  w: 0.9996341942870576
orientation_covariance: [0.017449999964008707, 0.0, 0.0, 0.0, 0.017449999964008707, 0.0, 0.0, 0.0, 0.15707999987357524]
angular_velocity: 
  x: -0.0005810995353385806
  y: 0.0009809868643060329
  z: -0.0027891620993614197
angular_velocity_covariance: [0.0004, 0.0, 0.0, 0.0, 0.0004, 0.0, 0.0, 0.0, 0.0004]
linear_acceleration: 
  x: 0.0
  y: 0.0
  z: 0.0
linear_acceleration_covariance: [-1.0, 0.0, 0.0, 0.0, 0.0, 0.0, 0.0, 0.0, 0.0]
---
header: 
  seq: 93
  stamp: 
    secs: 1661451406
    nsecs: 843413727
  frame_id: "imu_link"
orientation: 
  x: -0.014807935376986218
  y: -0.022416354795363146
  z: -0.002833506609958753
  w: 0.9996350350642232
orientation_covariance: [0.017449999964008707, 0.0, 0.0, 0.0, 0.017449999964008707, 0.0, 0.0, 0.0, 0.15707999987357524]
angular_velocity: 
  x: -0.0023262640461325645
  y: 0.003232136834412813
  z: -0.0016236036317422988
angular_velocity_covariance: [0.0004, 0.0, 0.0, 0.0, 0.0004, 0.0, 0.0, 0.0, 0.0004]
linear_acceleration: 
  x: 0.0
  y: 0.0
  z: 0.0
linear_acceleration_covariance: [-1.0, 0.0, 0.0, 0.0, 0.0, 0.0, 0.0, 0.0, 0.0]
---
header: 
  seq: 94
  stamp: 
    secs: 1661451406
    nsecs: 893404858
  frame_id: "imu_link"
orientation: 
  x: -0.014785145346906978
  y: -0.022382611090629424
  z: -0.0028418388387236927
  w: 0.9996361048650909
orientation_covariance: [0.017449999964008707, 0.0, 0.0, 0.0, 0.017449999964008707, 0.0, 0.0, 0.0, 0.15707999987357524]
angular_velocity: 
  x: 0.0009005713509395719
  y: 0.001357634202577174
  z: -0.0003335474757477641
angular_velocity_covariance: [0.0004, 0.0, 0.0, 0.0, 0.0004, 0.0, 0.0, 0.0, 0.0004]
linear_acceleration: 
  x: 0.0
  y: 0.0
  z: 0.0
linear_acceleration_covariance: [-1.0, 0.0, 0.0, 0.0, 0.0, 0.0, 0.0, 0.0, 0.0]
---
header: 
  seq: 95
  stamp: 
    secs: 1661451406
    nsecs: 943049120
  frame_id: "imu_link"
orientation: 
  x: -0.014859843005352574
  y: -0.022342266033579677
  z: -0.0028816803180163044
  w: 0.9996357857404295
