header: 
  seq: 3
  stamp: 
    secs: 1661451402
    nsecs: 342595895
  frame_id: "imu_link"
vector: 
  x: 0.00012124092609155923
  y: 0.0017671416280791166
  z: -0.00048817429342307156
---
header: 
  seq: 4
  stamp: 
    secs: 1661451402
    nsecs: 392425199
  frame_id: "imu_link"
vector: 
  x: -0.0006980433245189489
  y: -5.965783930150792e-05
  z: -0.0008653186378069223
---
header: 
  seq: 5
  stamp: 
    secs: 1661451402
    nsecs: 442769555
  frame_id: "imu_link"
vector: 
  x: -0.00019758693815674635
  y: 0.0020120285917073493
  z: 0.0004851135890930891
---
header: 
  seq: 6
  stamp: 
    secs: 1661451402
    nsecs: 492999468
  frame_id: "imu_link"
vector: 
  x: 3.3036500099115074e-05
  y: 0.0021778799127787356
  z: -0.0021307296119630337
---
header: 
  seq: 7
  stamp: 
    secs: 1661451402
    nsecs: 543009776
  frame_id: "imu_link"
vector: 
  x: -0.0015236454783007505
  y: 0.0007519291248172522
  z: -0.0012507231440395117
---
header: 
  seq: 8
  stamp: 
    secs: 1661451402
    nsecs: 592125497
  frame_id: "imu_link"
vector: 
  x: -0.0011970613850280645
  y: 0.0007454562000930309
  z: -0.0011900138342753055
---
header: 
  seq: 9
  stamp: 
    secs: 1661451402
    nsecs: 643084170
  frame_id: "imu_link"
vector: 
  x: 0.0002903595741372556
  y: 0.0017001567175611856
  z: 0.00017929926980286837
---
header: 
  seq: 10
  stamp: 
    secs: 1661451402
    nsecs: 692643226
  frame_id: "imu_link"
vector: 
  x: -0.0016083666123449802
  y: 0.00311809522099793
  z: -0.002089621964842081
---
header: 
  seq: 11
  stamp: 
    secs: 1661451402
    nsecs: 742269444
  frame_id: "imu_link"
vector: 
  x: -0.0001723665773170069
  y: 0.0016348969656974077
  z: -0.0014671562239527702
---
header: 
  seq: 12
  stamp: 
    secs: 1661451402
    nsecs: 792770600
  frame_id: "imu_link"
vector: 
  x: -0.0017764256335794926
  y: 0.0015446987235918643
  z: -0.00039020576514303684
---
header: 
  seq: 13
  stamp: 
    secs: 1661451402
    nsecs: 842417236
  frame_id: "imu_link"
vector: 
  x: 0.0002644697378855199
  y: 0.00130930298473686
  z: -0.0015591764822602272
---
header: 
  seq: 14
  stamp: 
    secs: 1661451402
    nsecs: 892670036
  frame_id: "imu_link"
vector: 
  x: -0.0004076880868524313
  y: 0.0008142820443026723
  z: -0.001470223069190979
---
header: 
  seq: 15
  stamp: 
    secs: 1661451402
    nsecs: 943198178
  frame_id: "imu_link"
vector: 
  x: -0.0008051245240494609
  y: 0.0006945486529730261
  z: -0.0010726515902206304
---
header: 
  seq: 16
  stamp: 
    secs: 1661451402
    nsecs: 992560599
  frame_id: "imu_link"
vector: 
  x: -0.0002708283718675375
  y: 0.0007307399646379055
  z: -0.002201287541538477
---
header: 
  seq: 17
  stamp: 
    secs: 1661451403
    nsecs:  42498821
  frame_id: "imu_link"
vector: 
  x: -0.00029512227047234774
  y: 0.0013272317592054605
  z: -0.0021429571788758044
---
header: 
  seq: 18
  stamp: 
    secs: 1661451403
    nsecs:  92317458
  frame_id: "imu_link"
vector: 
  x: 0.0008895472856238484
  y: 0.0017331807175651195
  z: -0.00073303806129843
---
header: 
  seq: 19
  stamp: 
    secs: 1661451403
    nsecs: 142963128
  frame_id: "imu_link"
vector: 
  x: -0.0005121789872646332
  y: 0.0024129643570631747
  z: 6.425400351872669e-05
---
header: 
  seq: 20
  stamp: 
    secs: 1661451403
    nsecs: 193318872
  frame_id: "imu_link"
vector: 
  x: -0.0002709549153223634
  y: 0.0007560272351838649
  z: -0.0005285457009449601
---
header: 
  seq: 21
  stamp: 
    secs: 1661451403
    nsecs: 242446466
  frame_id: "imu_link"
vector: 
  x: 0.0002877970109693706
  y: 0.0011125807650387287
  z: 0.0011696893488988282
---
header: 
  seq: 22
  stamp: 
    secs: 1661451403
    nsecs: 293215441
  frame_id: "imu_link"
vector: 
  x: -0.0006034543039277196
  y: 0.0006117434822954239
  z: -0.0036712782457470894
---
header: 
  seq: 23
  stamp: 
    secs: 1661451403
    nsecs: 342904875
  frame_id: "imu_link"
vector: 
  x: 0.0002834298938978464
  y: 0.002821659203618765
  z: -0.0010213616769760847
---
header: 
  seq: 24
  stamp: 
    secs: 1661451403
    nsecs: 393072114
  frame_id: "imu_link"
vector: 
  x: -0.00024466245668008924
  y: 0.0004261093272361905
  z: -0.0007344770710915327
---
header: 
  seq: 25
  stamp: 
    secs: 1661451403
    nsecs: 442206795
  frame_id: "imu_link"
vector: 
  x: 0.000352766044670716
  y: 0.0015460065333172681
  z: -0.0007066670805215836
---
header: 
  seq: 26
  stamp: 
    secs: 1661451403
    nsecs: 492658114
  frame_id: "imu_link"
vector: 
  x: -0.00035710918018594384
  y: 0.0015959026059135797
  z: -0.0021197651512920856
---
header: 
  seq: 27
  stamp: 
    secs: 1661451403
    nsecs: 542855787
  frame_id: "imu_link"
vector: 
  x: 0.0006002036971040071
  y: 0.0025258162058889866
  z: -0.0010412153787910938
---
header: 
  seq: 28
  stamp: 
    secs: 1661451403
    nsecs: 593017889
  frame_id: "imu_link"
vector: 
  x: -0.0006149224936962128
  y: 0.0019223120762035253
  z: -0.0011178087443113327
---
header: 
  seq: 29
  stamp: 
    secs: 1661451403
    nsecs: 642931178
  frame_id: "imu_link"
vector: 
  x: -0.001206760061904788
  y: 0.001658569322898984
  z: -0.0016148671275004747
---
header: 
  seq: 30
  stamp: 
    secs: 1661451403
    nsecs: 693813901
  frame_id: "imu_link"
vector: 
  x: -0.001794974086806178
  y: 0.0035543192643672232
  z: -0.001061929389834404
---
header: 
  seq: 31
  stamp: 
    secs: 1661451403
    nsecs: 743447477
  frame_id: "imu_link"
vector: 
  x: 0.0010330305667594077
  y: 0.002756485715508461
  z: -0.0016312634106725454
---
header: 
  seq: 32
  stamp: 
    secs: 1661451403
    nsecs: 793210693
  frame_id: "imu_link"
vector: 
  x: -0.001026699086651206
  y: 0.003676319727674127
  z: -0.0009247520938515663
---
header: 
  seq: 33
  stamp: 
    secs: 1661451403
    nsecs: 843302578
  frame_id: "imu_link"
vector: 
  x: -0.002221152884885669
  y: 0.0011444567935541274
  z: -0.0018621634226292372
---
header: 
  seq: 34
  stamp: 
    secs: 1661451403
    nsecs: 892518569
  frame_id: "imu_link"
vector: 
  x: -0.00025015065330080693
  y: 0.003681554924696684
  z: -0.0021383890416473155
---
header: 
  seq: 35
  stamp: 
    secs: 1661451403
    nsecs: 942835814
  frame_id: "imu_link"
vector: 
  x: -0.0005221558967605233
  y: 0.0017353760777041318
  z: -0.0015087336068972947
---
header: 
  seq: 36
  stamp: 
    secs: 1661451403
    nsecs: 992644734
  frame_id: "imu_link"
vector: 
  x: -0.001433163182809949
  y: 0.0017716189613565805
  z: -0.0014879850205034018
---
header: 
  seq: 37
  stamp: 
    secs: 1661451404
    nsecs:  42638519
  frame_id: "imu_link"
vector: 
  x: -0.0010853367857635021
  y: 0.0028960630297660828
  z: -0.0009318316006101669
---
header: 
  seq: 38
  stamp: 
    secs: 1661451404
    nsecs:  92562995
  frame_id: "imu_link"
vector: 
  x: -0.000739430484827608
  y: 0.0028829951770603657
  z: -0.0026506886351853613
---
header: 
  seq: 39
  stamp: 
    secs: 1661451404
    nsecs: 142437194
  frame_id: "imu_link"
vector: 
  x: -0.002803504234179855
  y: 0.001359074842184782
  z: -0.0019860207103192806
---
header: 
  seq: 40
  stamp: 
    secs: 1661451404
    nsecs: 193295707
  frame_id: "imu_link"
vector: 
  x: -0.0005298283067531885
  y: 0.0019096117466688156
  z: -0.0034058729652315383
---
header: 
  seq: 41
  stamp: 
    secs: 1661451404
    nsecs: 242797481
  frame_id: "imu_link"
vector: 
  x: -0.0026425113901495934
  y: 0.0026954221539199352
  z: -0.0026815163437277083
---
header: 
  seq: 42
  stamp: 
    secs: 1661451404
    nsecs: 293058927
  frame_id: "imu_link"
vector: 
  x: -0.0003505926579236984
  y: 0.0026398047339171176
  z: -0.0016681316774338484
---
header: 
  seq: 43
  stamp: 
    secs: 1661451404
    nsecs: 342954622
  frame_id: "imu_link"
vector: 
  x: -2.8832113230237155e-07
  y: 0.0028908227104693656
  z: -0.0011440733214840295
---
header: 
  seq: 44
  stamp: 
    secs: 1661451404
    nsecs: 393097890
  frame_id: "imu_link"
vector: 
  x: -0.0013294868404045703
  y: 0.002038245089352131
  z: 0.00015837063256185505
---
header: 
  seq: 45
  stamp: 
    secs: 1661451404
    nsecs: 442819877
  frame_id: "imu_link"
vector: 
  x: 6.77468560752459e-05
  y: 0.0010096662444993856
  z: -0.0009504979243502021
---
header: 
  seq: 46
  stamp: 
    secs: 1661451404
    nsecs: 493269106
  frame_id: "imu_link"
vector: 
  x: 0.00046877321437932556
  y: 0.002526224125176668
  z: -0.0032234273385256533
---
header: 
  seq: 47
  stamp: 
    secs: 1661451404
    nsecs: 543326887
  frame_id: "imu_link"
vector: 
  x: -0.0007130246376618743
  y: 0.0011726698139682414
  z: 0.0007102629751898349
---
header: 
  seq: 48
  stamp: 
    secs: 1661451404
    nsecs: 592809671
  frame_id: "imu_link"
vector: 
  x: 0.0004299518186599016
  y: 0.002211925340816379
  z: -0.002403787337243557
---
header: 
  seq: 49
  stamp: 
    secs: 1661451404
    nsecs: 643230703
  frame_id: "imu_link"
vector: 
  x: -0.0011640078155323865
  y: 0.0012352307094261052
  z: 6.161168857943267e-05
---
header: 
  seq: 50
  stamp: 
    secs: 1661451404
    nsecs: 693320691
  frame_id: "imu_link"
vector: 
  x: -0.0006511656101793051
  y: 0.0012939606094732883
  z: -0.002894922159612179
---
header: 
  seq: 51
  stamp: 
    secs: 1661451404
    nsecs: 743263873
  frame_id: "imu_link"
vector: 
  x: -0.00013154470070730898
  y: 0.002015679143369198
  z: -0.0013694993685930967
---
header: 
  seq: 52
  stamp: 
    secs: 1661451404
    nsecs: 792742816
  frame_id: "imu_link"
vector: 
  x: -0.001396500738337636
  y: 0.0014844980323687198
  z: -0.0032770736142992973
---
header: 
  seq: 53
  stamp: 
    secs: 1661451404
    nsecs: 843205729
  frame_id: "imu_link"
vector: 
  x: 0.0010387540096417072
  y: 0.0008876799256540836
  z: 0.00040360173443332314
---
header: 
  seq: 54
  stamp: 
    secs: 1661451404
    nsecs: 893325338
  frame_id: "imu_link"
vector: 
  x: -0.0009567015222273768
  y: 0.002798686735332012
  z: -0.0015133366687223317
---
header: 
  seq: 55
  stamp: 
    secs: 1661451404
    nsecs: 943173976
  frame_id: "imu_link"
vector: 
  x: -0.0009259872022084893
  y: 0.0008965374436229467
  z: -0.004038600251078606
---
header: 
  seq: 56
  stamp: 
    secs: 1661451404
    nsecs: 993036358
  frame_id: "imu_link"
vector: 
  x: 0.0009835982928052547
  y: 0.0008103536674752831
  z: 0.0008369127172045411
---
header: 
  seq: 57
  stamp: 
    secs: 1661451405
    nsecs:  43261588
  frame_id: "imu_link"
vector: 
  x: 0.0005826825508847833
  y: 0.0029296656139194965
  z: -0.005766418296843768
---
header: 
  seq: 58
  stamp: 
    secs: 1661451405
    nsecs:  92874605
  frame_id: "imu_link"
vector: 
  x: 0.0006221297080628575
  y: 0.0013675244990736246
  z: 0.005864430684596301
---
header: 
  seq: 59
  stamp: 
    secs: 1661451405
    nsecs: 143029489
  frame_id: "imu_link"
vector: 
  x: 0.0015239146305248143
  y: 0.0025926828384399414
  z: -0.003712945617735386
---
header: 
  seq: 60
  stamp: 
    secs: 1661451405
    nsecs: 192594331
  frame_id: "imu_link"
vector: 
  x: -0.001913235755637288
  y: -0.0006173577276058496
  z: -0.0017299600876867771
---
header: 
  seq: 61
  stamp: 
    secs: 1661451405
    nsecs: 242454610
  frame_id: "imu_link"
vector: 
  x: 0.005506463348865509
  y: 0.0021662022918462753
  z: 0.01245288271456957
---
header: 
  seq: 62
  stamp: 
    secs: 1661451405
    nsecs: 292991001
  frame_id: "imu_link"
vector: 
  x: -0.005262941587716342
  y: 0.004768069833517075
  z: -0.018217219039797786
---
header: 
  seq: 63
  stamp: 
    secs: 1661451405
    nsecs: 343156124
  frame_id: "imu_link"
vector: 
  x: -0.004994315095245838
  y: 0.0021339810919016604
  z: 0.006965060252696277
---
header: 
  seq: 64
  stamp: 
    secs: 1661451405
    nsecs: 392707046
  frame_id: "imu_link"
vector: 
  x: 0.007069481536746025
  y: 0.0014693496050313117
  z: -0.005390887148678303
---
header: 
  seq: 65
  stamp: 
    secs: 1661451405
    nsecs: 443090995
  frame_id: "imu_link"
vector: 
  x: -0.003448920324444771
  y: 0.0011469938326627016
  z: 0.0004948718124069275
---
header: 
  seq: 66
  stamp: 
    secs: 1661451405
    nsecs: 492872342
  frame_id: "imu_link"
vector: 
  x: -0.002668660134077072
  y: 0.0010531482985243203
  z: -0.004489872604608536
---
header: 
  seq: 67
  stamp: 
    secs: 1661451405
    nsecs: 542789986
  frame_id: "imu_link"
vector: 
  x: 0.005191001575440169
  y: 0.002074006013572216
  z: 0.0009056876879185438
---
header: 
  seq: 68
  stamp: 
    secs: 1661451405
    nsecs: 593005724
  frame_id: "imu_link"
vector: 
  x: -0.004819539375603199
  y: 0.001510353176854551
  z: 0.0017487641889601946
---
header: 
  seq: 69
  stamp: 
    secs: 1661451405
    nsecs: 643154866
  frame_id: "imu_link"
vector: 
  x: -0.0013608734589070082
  y: 0.0008896279614418745
  z: -0.003397674066945911
---
header: 
  seq: 70
  stamp: 
    secs: 1661451405
    nsecs: 692546426
  frame_id: "imu_link"
vector: 
  x: 0.002690895926207304
  y: 0.001274347887374461
  z: 0.0011443635448813438
---
header: 
  seq: 71
  stamp: 
    secs: 1661451405
    nsecs: 742772274
  frame_id: "imu_link"
vector: 
  x: -0.002947654575109482
  y: 0.003867986844852567
  z: -0.002698520896956325
---
header: 
  seq: 72
  stamp: 
    secs: 1661451405
    nsecs: 792820279
  frame_id: "imu_link"
vector: 
  x: -0.002412506146356464
  y: 0.0007361603202298284
  z: -0.00392042612656951
---
header: 
  seq: 73
  stamp: 
    secs: 1661451405
    nsecs: 843237812
  frame_id: "imu_link"
vector: 
  x: -0.00016120003419928253
  y: 0.001690964214503765
  z: -0.0004774479020852596
---
header: 
  seq: 74
  stamp: 
    secs: 1661451405
    nsecs: 892987248
  frame_id: "imu_link"
vector: 
  x: 0.0005796540644951166
  y: 0.004392759874463081
  z: -0.0030765759292989974
---
header: 
  seq: 75
  stamp: 
    secs: 1661451405
    nsecs: 942903849
  frame_id: "imu_link"
vector: 
  x: 3.946750075556338e-05
  y: 0.0014354585437104108
  z: -0.004393994342535735
---
header: 
  seq: 76
  stamp: 
    secs: 1661451405
    nsecs: 993501331
  frame_id: "imu_link"
vector: 
  x: -0.0011397222988307476
  y: 0.001190108363516629
  z: -0.0023098052479326725
---
header: 
  seq: 77
  stamp: 
    secs: 1661451406
    nsecs:  43269138
  frame_id: "imu_link"
vector: 
  x: -0.0034547424875199795
  y: 0.005145207978785038
  z: -0.00501953111961484
---
header: 
  seq: 78
  stamp: 
    secs: 1661451406
    nsecs:  93307256
  frame_id: "imu_link"
vector: 
  x: -0.003917588386684657
  y: 2.2540116333402693e-05
  z: -0.009005685336887838
---
header: 
  seq: 79
  stamp: 
    secs: 1661451406
    nsecs: 143211616
  frame_id: "imu_link"
vector: 
  x: 0.005135749932378531
  y: 0.00010590447345748544
  z: 0.011346086859703064
---
header: 
  seq: 80
  stamp: 
    secs: 1661451406
    nsecs: 192527765
  frame_id: "imu_link"
vector: 
  x: 0.00289927120320499
  y: 0.0020926566794514656
  z: -0.0042865420691669
---
header: 
  seq: 81
  stamp: 
    secs: 1661451406
    nsecs: 242540081
  frame_id: "imu_link"
vector: 
  x: -0.0028316909447312355
  y: -0.0016617581713944674
  z: 0.008503585122525694
---
header: 
  seq: 82
  stamp: 
    secs: 1661451406
    nsecs: 293046024
  frame_id: "imu_link"
vector: 
  x: 0.00483560236170888
  y: -0.00010070596181321889
  z: 0.0002965111925732345
---
header: 
  seq: 83
  stamp: 
    secs: 1661451406
    nsecs: 342950582
  frame_id: "imu_link"
vector: 
  x: -0.0013179498491808774
  y: 0.005729289725422859
  z: 0.0014216776471585035
---
header: 
  seq: 84
  stamp: 
    secs: 1661451406
    nsecs: 392865337
  frame_id: "imu_link"
vector: 
  x: -0.012118900194764137
  y: 0.005452540237456561
  z: -0.01936762034893036
---
header: 
  seq: 85
  stamp: 
    secs: 1661451406
    nsecs: 442681500
  frame_id: "imu_link"
vector: 
  x: 0.003843266284093261
  y: 0.002127921441569925
  z: 0.015767782926559448
---
header: 
  seq: 86
  stamp: 
    secs: 1661451406
    nsecs: 492971886
  frame_id: "imu_link"
vector: 
  x: 0.0027914042584598064
  y: 0.005791273433715106
  z: -0.013456325978040695
---
header: 
  seq: 87
  stamp: 
    secs: 1661451406
    nsecs: 542803864
  frame_id: "imu_link"
vector: 
  x: -0.0062563661485910416
  y: 0.000620619219262153
  z: 0.008326605893671514
---
header: 
  seq: 88
  stamp: 
    secs: 1661451406
    nsecs: 592692305
  frame_id: "imu_link"
vector: 
  x: 0.001895801047794521
  y: 0.0009926296770572662
  z: -0.00783327128738165
---
header: 
  seq: 89
  stamp: 
    secs: 1661451406
    nsecs: 642722260
  frame_id: "imu_link"
vector: 
  x: 0.0014475394273176791
  y: 0.003432068275287748
  z: 0.003282836638391018
---
header: 
  seq: 90
  stamp: 
    secs: 1661451406
    nsecs: 693083769
  frame_id: "imu_link"
vector: 
  x: -0.0041873580776155
  y: 0.0025637554936110973
  z: -0.00331652001477778
---
header: 
  seq: 91
  stamp: 
    secs: 1661451406
    nsecs: 742914527
  frame_id: "imu_link"
vector: 
  x: 0.0036539903376251463
  y: 0.000506799784488976
  z: 0.002511305268853903
---
header: 
  seq: 92
  stamp: 
    secs: 1661451406
    nsecs: 792600483
  frame_id: "imu_link"
vector: 
  x: -0.0005810995353385806
  y: 0.0009809868643060329
  z: -0.0027891620993614197
---
header: 
  seq: 93
  stamp: 
    secs: 1661451406
    nsecs: 843413727
  frame_id: "imu_link"
vector: 
  x: -0.0023262640461325645
  y: 0.003232136834412813
  z: -0.0016236036317422988
---
header: 
  seq: 94
  stamp: 
    secs: 1661451406
    nsecs: 893404858
  frame_id: "imu_link"
vector: 
  x: 0.0009005713509395719
  y: 0.001357634202577174
  z: -0.0003335474757477641
---
header: 
  seq: 95
  stamp: 
    secs: 1661451406
    nsecs: 943049120
  frame_id: "imu_link"
vector: 
  x: -0.0030271075665950775
  y: 0.0016281317221000793
  z: -0.0015023729065433147
---
header: 
  seq: 96
  stamp: 
    secs: 1661451406
    nsecs: 992719311
  frame_id: "imu_link"
vector: 
  x: -0.001456167898140848
  y: 0.0018366395961493254
  z: -0.00365215283818543
---
header: 
  seq: 97
  stamp: 
    secs: 1661451407
    nsecs:  43315407
  frame_id: "imu_link"
vector: 
  x: -7.73988722357899e-05
  y: 0.002617251593619585
  z: -0.0012998114107176664
---
header: 
  seq: 98
  stamp: 
    secs: 1661451407
    nsecs:  93353133
  frame_id: "imu_link"
vector: 
  x: -0.00340156932361424
  y: 0.002712935209274292
  z: -0.002851161407306791
---
header: 
  seq: 99
  stamp: 
    secs: 1661451407
    nsecs: 142957523
  frame_id: "imu_link"
vector: 
  x: 0.0007083943346515298
  y: 0.002590917749330402
  z: -0.0017097879899665715
---
header: 
  seq: 100
  stamp: 
    secs: 1661451407
    nsecs: 193048163
  frame_id: "imu_link"
vector: 
  x: 6.72285386826843e-05
  y: 0.0022875827271491293
  z: -0.0017090586479753256
---
header: 
  seq: 101
  stamp: 
    secs: 1661451407
    nsecs: 242763986
  frame_id: "imu_link"
vector: 
  x: -0.002302777022123337
  y: 0.0018270909786224365
  z: -0.0014113263459876182
---
header: 
  seq: 102
  stamp: 
    secs: 1661451407
    nsecs: 292798388
  frame_id: "imu_link"
vector: 
  x: -0.00017740785551723096
  y: 0.001723914174363017
  z: -0.000881927029695362
---
header: 
  seq: 103
  stamp: 
    secs: 1661451407
    nsecs: 343592126
  frame_id: "imu_link"
vector: 
  x: -0.0007082251249812544
  y: 0.003121744841337204
  z: -0.0027559995651245117
---
header: 
  seq: 104
  stamp: 
    secs: 1661451407
    nsecs: 393616559
  frame_id: "imu_link"
vector: 
  x: -0.0017333647701889277
  y: 0.0003418073465581984
  z: 0.0005340985953807831
---
header: 
  seq: 105
  stamp: 
    secs: 1661451407
    nsecs: 442727784
  frame_id: "imu_link"
vector: 
  x: 0.0009017796837724746
  y: 0.002743307733908296
  z: -0.0019297765102237463
---
header: 
  seq: 106
  stamp: 
    secs: 1661451407
    nsecs: 493011404
  frame_id: "imu_link"
vector: 
  x: -0.0012966477079316976
  y: 0.0015262388624250889
  z: -0.00017852247401606294
---
header: 
  seq: 107
  stamp: 
    secs: 1661451407
    nsecs: 542912463
  frame_id: "imu_link"
vector: 
  x: -0.0014433428877964618
  y: 0.001974151935428381
  z: -0.001863184617832303
---
header: 
  seq: 108
  stamp: 
    secs: 1661451407
    nsecs: 592784702
  frame_id: "imu_link"
vector: 
  x: -0.001404044800437987
  y: 0.0020068339072167873
  z: -0.0007659916882403196
---
header: 
  seq: 109
  stamp: 
    secs: 1661451407
    nsecs: 642755973
  frame_id: "imu_link"
vector: 
  x: -0.0007748707430437207
  y: 0.00288519449532032
  z: -0.0019760683644562964
---
header: 
  seq: 110
  stamp: 
    secs: 1661451407
    nsecs: 692637077
  frame_id: "imu_link"
vector: 
  x: -0.0005538086988963188
  y: 0.0028127972036600113
  z: -0.002380554331466556
---
header: 
  seq: 111
  stamp: 
    secs: 1661451407
    nsecs: 742712487
  frame_id: "imu_link"
vector: 
  x: -0.0005378513014875353
  y: 0.002475101500749588
  z: -0.0012763270642608404
---
header: 
  seq: 112
  stamp: 
    secs: 1661451407
    nsecs: 793193552
  frame_id: "imu_link"
vector: 
  x: -0.0005085288430564107
  y: 0.001638159155845642
  z: -0.0021482144948095088
---
header: 
  seq: 113
  stamp: 
    secs: 1661451407
    nsecs: 843122433
  frame_id: "imu_link"
vector: 
  x: 0.0011766094248741865
  y: 0.0017325496301054955
  z: -0.00044107655412517493
---
header: 
  seq: 114
  stamp: 
    secs: 1661451407
    nsecs: 893209938
  frame_id: "imu_link"
vector: 
  x: -0.0002904392022173852
  y: 0.0019866940565407276
  z: -0.00304453237913549
---
header: 
  seq: 115
  stamp: 
    secs: 1661451407
    nsecs: 943203206
  frame_id: "imu_link"
vector: 
  x: -0.0007621758268214763
  y: 0.001466577872633934
  z: -0.0004077088669873774
---
header: 
  seq: 116
  stamp: 
    secs: 1661451407
    nsecs: 993493409
  frame_id: "imu_link"
vector: 
  x: 0.0001904478267533705
  y: 0.0012475873809307814
  z: -0.0018977461149916055
---
header: 
  seq: 117
  stamp: 
    secs: 1661451408
    nsecs:  43599651
  frame_id: "imu_link"
vector: 
  x: -0.0008863172843120993
  y: 0.0015410642372444274
  z: -0.002696059178560972
---
header: 
  seq: 118
  stamp: 
    secs: 1661451408
    nsecs:  93525096
  frame_id: "imu_link"
vector: 
  x: -0.0008731391862966121
  y: 0.0023390688002109528
  z: -0.002540781861171127
---
header: 
  seq: 119
  stamp: 
    secs: 1661451408
    nsecs: 143223410
  frame_id: "imu_link"
vector: 
  x: -0.000196494089323096
  y: 0.0011599971912801266
  z: -0.0013270818162709475
---
header: 
  seq: 120
  stamp: 
    secs: 1661451408
    nsecs: 193026766
  frame_id: "imu_link"
vector: 
  x: -0.001158735831268132
  y: 0.0018214283045381308
  z: -0.00155958638060838
---
header: 
  seq: 121
  stamp: 
    secs: 1661451408
    nsecs: 243167200
  frame_id: "imu_link"
vector: 
  x: -0.0016315162647515535
  y: 0.0028391904197633266
  z: -0.001792387221939862
---
header: 
  seq: 122
  stamp: 
    secs: 1661451408
    nsecs: 293623546
  frame_id: "imu_link"
vector: 
  x: 2.158381721528713e-05
  y: 0.0018064070027321577
  z: -0.002784253796562553
---
header: 
  seq: 123
  stamp: 
    secs: 1661451408
    nsecs: 343326845
  frame_id: "imu_link"
vector: 
  x: 0.00028085755184292793
  y: 0.0012898348504677417
  z: -0.003581198630854488
---
header: 
  seq: 124
  stamp: 
    secs: 1661451408
    nsecs: 393546731
  frame_id: "imu_link"
vector: 
  x: -0.00020069762831553817
  y: -0.00015435229579452428
  z: -0.001577282091602683
---
header: 
  seq: 125
  stamp: 
    secs: 1661451408
    nsecs: 443545265
  frame_id: "imu_link"
vector: 
  x: -0.00043507624650374055
  y: 0.00238692294806242
  z: -0.0019463190110400321
---
header: 
  seq: 126
  stamp: 
    secs: 1661451408
    nsecs: 493305763
  frame_id: "imu_link"
vector: 
  x: 2.38111033468158e-06
  y: 0.0025565412361174826
  z: -0.0016787962522357702
---
header: 
  seq: 127
  stamp: 
    secs: 1661451408
    nsecs: 543179508
  frame_id: "imu_link"
vector: 
  x: 0.0001773287222022191
  y: 0.0022444617934525013
  z: -0.002044243738055229
---
header: 
  seq: 128
  stamp: 
    secs: 1661451408
    nsecs: 593007172
  frame_id: "imu_link"
vector: 
  x: -0.000814035360235721
  y: 0.001453307457268238
  z: -0.003311913693323732
---
header: 
  seq: 129
  stamp: 
    secs: 1661451408
    nsecs: 642697876
  frame_id: "imu_link"
vector: 
  x: -0.0012891105143353345
  y: 0.000671302026603371
  z: -0.0005402772221714258
---
header: 
  seq: 130
  stamp: 
    secs: 1661451408
    nsecs: 692999754
  frame_id: "imu_link"
vector: 
  x: 0.0003206058172509074
  y: 0.002351608825847507
  z: -0.0020446665585041046
---
header: 
  seq: 131
  stamp: 
    secs: 1661451408
    nsecs: 742729459
  frame_id: "imu_link"
vector: 
  x: -0.0017262879991903903
  y: 0.0011056666262447834
  z: -0.0023880689404904842
---
header: 
  seq: 132
  stamp: 
    secs: 1661451408
    nsecs: 792863259
  frame_id: "imu_link"
vector: 
  x: -0.00029890367295593023
  y: 0.0012457246193662288
  z: -0.0013671868946403265
---
header: 
  seq: 133
  stamp: 
    secs: 1661451408
    nsecs: 842661496
  frame_id: "imu_link"
vector: 
  x: -0.0011306875385344028
  y: 0.0016202630940824747
  z: -0.001582013093866408
---
header: 
  seq: 134
  stamp: 
    secs: 1661451408
    nsecs: 893088338
  frame_id: "imu_link"
vector: 
  x: -0.0009509440278634429
  y: 0.00028509591356851166
  z: -0.0016443210188299417
---
header: 
  seq: 135
  stamp: 
    secs: 1661451408
    nsecs: 942938724
  frame_id: "imu_link"
vector: 
  x: 0.0005012828623875976
  y: 0.0012352823978289964
  z: -0.00161098490934819
---
header: 
  seq: 136
  stamp: 
    secs: 1661451408
    nsecs: 992758152
  frame_id: "imu_link"
vector: 
  x: 0.00022510603594128045
  y: 0.001868369523435831
  z: -0.001125705079175532
---
header: 
  seq: 137
  stamp: 
    secs: 1661451409
    nsecs:  42695497
  frame_id: "imu_link"
vector: 
  x: -0.00027031762874685233
  y: 0.0013250060146674516
  z: -0.0008351434953510761
---
header: 
  seq: 138
  stamp: 
    secs: 1661451409
    nsecs:  92696918
  frame_id: "imu_link"
vector: 
  x: 0.0001326503552263603
  y: 0.002833097707480192
  z: -0.0009149565012194217
---
header: 
  seq: 139
  stamp: 
    secs: 1661451409
    nsecs: 143583181
  frame_id: "imu_link"
vector: 
  x: 5.4530097258975736e-05
  y: 0.0015216239262372255
  z: -0.0008851448073983192
---
header: 
  seq: 140
  stamp: 
    secs: 1661451409
    nsecs: 193660291
  frame_id: "imu_link"
vector: 
  x: -0.0003802944556809962
  y: 0.0009594967705197633
  z: -0.001068625831976533
---
header: 
  seq: 141
  stamp: 
    secs: 1661451409
    nsecs: 243442041
  frame_id: "imu_link"
vector: 
  x: -0.0013449919642880561
  y: 0.0007422100170515479
  z: -0.002327475231140852
---
header: 
  seq: 142
  stamp: 
    secs: 1661451409
    nsecs: 293579584
  frame_id: "imu_link"
vector: 
  x: -0.002201310358941555
  y: 0.0009365141741000117
  z: -0.0018396181985735893
---
header: 
  seq: 143
  stamp: 
    secs: 1661451409
    nsecs: 343132219
  frame_id: "imu_link"
vector: 
  x: 0.000387068052077666
  y: 0.0022638682276010513
  z: -0.0013153962790966034
---
header: 
  seq: 144
  stamp: 
    secs: 1661451409
    nsecs: 393640789
  frame_id: "imu_link"
vector: 
  x: -0.0019668850582093005
  y: 0.0016947169788181782
  z: -0.0019319927087053659
---
header: 
  seq: 145
  stamp: 
    secs: 1661451409
    nsecs: 443690522
  frame_id: "imu_link"
vector: 
  x: 0.00020783388754352927
  y: 0.0009634296875447035
  z: -0.0012533540138974788
---
header: 
  seq: 146
  stamp: 
    secs: 1661451409
    nsecs: 493263586
  frame_id: "imu_link"
vector: 
  x: 0.0006947981310077013
  y: 0.002100967802107334
  z: -0.003419724060222507
---
header: 
  seq: 147
  stamp: 
    secs: 1661451409
    nsecs: 543244770
  frame_id: "imu_link"
vector: 
  x: -0.0010103549575433137
  y: 0.002025897614657879
  z: -0.0016416653525084257
---
header: 
  seq: 148
  stamp: 
    secs: 1661451409
    nsecs: 593361193
  frame_id: "imu_link"
vector: 
  x: 0.0001592413173057139
  y: 0.001864445977844298
  z: -0.0007599573582410812
---
header: 
  seq: 149
  stamp: 
    secs: 1661451409
    nsecs: 643294257
  frame_id: "imu_link"
vector: 
  x: -0.0007820441969670356
  y: 0.0018760679522529247
  z: -0.0027476237155497074
---
header: 
  seq: 150
  stamp: 
    secs: 1661451409
    nsecs: 693683510
  frame_id: "imu_link"
vector: 
  x: -0.0007966178818605841
  y: 0.002328521106392145
  z: -0.0019212841289117934
---
header: 
  seq: 151
  stamp: 
    secs: 1661451409
    nsecs: 743583688
  frame_id: "imu_link"
vector: 
  x: -0.0012654274469241502
  y: 0.0020147529430687428
  z: -0.0011259238235652447
---
header: 
  seq: 152
  stamp: 
    secs: 1661451409
    nsecs: 793600821
  frame_id: "imu_link"
vector: 
  x: -1.4233237379812635e-05
  y: 0.002110399072989822
  z: -0.0024662897922098637
---
header: 
  seq: 153
  stamp: 
    secs: 1661451409
    nsecs: 843249957
  frame_id: "imu_link"
vector: 
  x: -0.000182420204509981
  y: 0.0030540584120899443
  z: -0.00023915516794659197
---
header: 
  seq: 154
  stamp: 
    secs: 1661451409
    nsecs: 893326782
  frame_id: "imu_link"
vector: 
  x: 9.644844249123709e-05
  y: 0.0018191849812865257
  z: -0.00300586479716003
---
header: 
  seq: 155
  stamp: 
    secs: 1661451409
    nsecs: 943138072
  frame_id: "imu_link"
vector: 
  x: -0.0005411423044279218
  y: 0.00119350862223655
  z: -0.0003687120915856213
---
header: 
  seq: 156
  stamp: 
    secs: 1661451409
    nsecs: 993231309
  frame_id: "imu_link"
vector: 
  x: -0.0013690880732610824
  y: 0.000824587419629097
  z: -0.0008873007609508933
---
header: 
  seq: 157
  stamp: 
    secs: 1661451410
    nsecs:  42814919
  frame_id: "imu_link"
vector: 
  x: 0.0012356078950688245
  y: 0.0021859135013073687
  z: -0.0020335097797214985
---
header: 
  seq: 158
  stamp: 
    secs: 1661451410
    nsecs:  93365180
  frame_id: "imu_link"
vector: 
  x: -0.0003057967696804554
  y: 0.002373300027102232
  z: -0.0022257219534367327
---
header: 
  seq: 159
  stamp: 
    secs: 1661451410
    nsecs: 143026549
  frame_id: "imu_link"
vector: 
  x: 0.00011033053306164221
  y: 0.0011526078451424837
  z: -0.0011781647335737944
---
header: 
  seq: 160
  stamp: 
    secs: 1661451410
    nsecs: 192290176
  frame_id: "imu_link"
vector: 
  x: -0.0005917099188081921
  y: 0.0027751941233873367
  z: -0.0013906968524679544
---
header: 
  seq: 161
  stamp: 
    secs: 1661451410
    nsecs: 242369948
  frame_id: "imu_link"
vector: 
  x: -0.00015883239393588158
  y: 0.0005103042931295932
  z: -0.0024009463377296925
---
header: 
  seq: 162
  stamp: 
    secs: 1661451410
    nsecs: 292597258
  frame_id: "imu_link"
vector: 
  x: -0.000560029351618141
  y: 0.0024655344896018505
  z: -0.00031822829623706644
---
header: 
  seq: 163
  stamp: 
    secs: 1661451410
    nsecs: 342332525
  frame_id: "imu_link"
vector: 
  x: 0.000429123203502968
  y: 0.00018246978288516402
  z: -0.002402296755462885
---
header: 
  seq: 164
  stamp: 
    secs: 1661451410
    nsecs: 392016216
  frame_id: "imu_link"
vector: 
  x: 0.0018056571716442706
  y: 0.0034065954387187958
  z: 0.004371091257780791
---
header: 
  seq: 165
  stamp: 
    secs: 1661451410
    nsecs: 442837789
  frame_id: "imu_link"
vector: 
  x: 0.00013097333430778238
  y: 0.002492108149453998
  z: -0.006643533706665039
---
header: 
  seq: 166
  stamp: 
    secs: 1661451410
    nsecs: 491839999
  frame_id: "imu_link"
vector: 
  x: -0.0010335512924939394
  y: 0.0002397138596279547
  z: 0.005789395421743393
---
header: 
  seq: 167
  stamp: 
    secs: 1661451410
    nsecs: 542529447
  frame_id: "imu_link"
vector: 
  x: 0.0006707690190523863
  y: 0.004004096146672965
  z: -0.008887109346687795
---
header: 
  seq: 168
  stamp: 
    secs: 1661451410
    nsecs: 592398331
  frame_id: "imu_link"
vector: 
  x: -0.0005799098871648312
  y: -0.001564063015393913
  z: 0.0029517128132283688
---
header: 
  seq: 169
  stamp: 
    secs: 1661451410
    nsecs: 642341393
  frame_id: "imu_link"
vector: 
  x: 0.004512211307883263
  y: -0.002247316762804985
  z: 0.00516958860680461
---
header: 
  seq: 170
  stamp: 
    secs: 1661451410
    nsecs: 692808957
  frame_id: "imu_link"
vector: 
  x: -0.00013690583000425252
  y: 0.010571297258138657
  z: -0.0005835599149577321
---
header: 
  seq: 171
  stamp: 
    secs: 1661451410
    nsecs: 742693011
  frame_id: "imu_link"
vector: 
  x: -0.008650492876768112
  y: 0.0009134498541243375
  z: -0.01655949838459492
---
header: 
  seq: 172
  stamp: 
    secs: 1661451410
    nsecs: 792488533
  frame_id: "imu_link"
vector: 
  x: 0.0013319506542757156
  y: 0.0006237210473045707
  z: 0.00656798528507352
---
header: 
  seq: 173
  stamp: 
    secs: 1661451410
    nsecs: 842445400
  frame_id: "imu_link"
vector: 
  x: -0.0032501714304089546
  y: 0.002003008034080267
  z: -0.013253143988549711
---
header: 
  seq: 174
  stamp: 
    secs: 1661451410
    nsecs: 892355032
  frame_id: "imu_link"
vector: 
  x: -0.002270229160785675
  y: 0.004068640526384116
  z: 0.008245715871453285
---
header: 
  seq: 175
  stamp: 
    secs: 1661451410
    nsecs: 942594518
  frame_id: "imu_link"
vector: 
  x: 0.004351561889052391
  y: 0.003196925157681108
  z: -0.006360288243740798
---
header: 
  seq: 176
  stamp: 
    secs: 1661451410
    nsecs: 991925007
  frame_id: "imu_link"
vector: 
  x: -0.001511453767307103
  y: -0.0005201436579227448
  z: 0.0025024905335158114
---
header: 
  seq: 177
  stamp: 
    secs: 1661451411
    nsecs:  41777313
  frame_id: "imu_link"
vector: 
  x: -0.0034321476705372334
  y: 0.0017034928314387798
  z: -0.003003978403285146
---
header: 
  seq: 178
  stamp: 
    secs: 1661451411
    nsecs:  91931168
  frame_id: "imu_link"
vector: 
  x: 0.004316635429859161
  y: 0.004848000127822162
  z: 0.002385674975812435
---
header: 
  seq: 179
  stamp: 
    secs: 1661451411
    nsecs: 142632142
  frame_id: "imu_link"
vector: 
  x: -0.0022732391953468323
  y: 0.004098550882190467
  z: -0.004873802419751883
---
header: 
  seq: 180
  stamp: 
    secs: 1661451411
    nsecs: 192716389
  frame_id: "imu_link"
vector: 
  x: -0.002547181444242597
  y: 0.0007765431655570865
  z: -0.0007021419587545098
---
header: 
  seq: 181
  stamp: 
    secs: 1661451411
    nsecs: 242753389
  frame_id: "imu_link"
vector: 
  x: 0.0030442865099757914
  y: 0.0001823528000386432
  z: -0.0005349146667867899
---
header: 
  seq: 182
  stamp: 
    secs: 1661451411
    nsecs: 292830373
  frame_id: "imu_link"
vector: 
  x: 0.0016257967799901962
  y: 0.0039438274689018735
  z: 0.005430150777101517
---
header: 
  seq: 183
  stamp: 
    secs: 1661451411
    nsecs: 342826183
  frame_id: "imu_link"
vector: 
  x: -0.0010965517722070217
  y: 0.0011296629672870042
  z: 0.001508807414211333
---
header: 
  seq: 184
  stamp: 
    secs: 1661451411
    nsecs: 392251342
  frame_id: "imu_link"
vector: 
  x: 0.00031936544110067194
  y: 0.0009266389533877373
  z: -0.004281788598746062
---
header: 
  seq: 185
  stamp: 
    secs: 1661451411
    nsecs: 442704289
  frame_id: "imu_link"
vector: 
  x: -0.0019392882240936162
  y: 0.002775807166472078
  z: -0.0038018878549337387
---
header: 
  seq: 186
  stamp: 
    secs: 1661451411
    nsecs: 492773128
  frame_id: "imu_link"
vector: 
  x: -0.0056276856921613225
  y: 0.0011339085176587105
  z: -0.008577517233788969
---
header: 
  seq: 187
  stamp: 
    secs: 1661451411
    nsecs: 542343852
  frame_id: "imu_link"
vector: 
  x: -0.0007762970053590835
  y: -0.00040294730570167303
  z: -0.0038453759625554085
---
header: 
  seq: 188
  stamp: 
    secs: 1661451411
    nsecs: 592754107
  frame_id: "imu_link"
vector: 
  x: 0.004580638371407986
  y: 0.004082165192812682
  z: 0.003870702348649502
---
header: 
  seq: 189
  stamp: 
    secs: 1661451411
    nsecs: 642754895
  frame_id: "imu_link"
vector: 
  x: -0.0031880023889243603
  y: 0.002449820749461651
  z: -0.0017587860347703101
---
header: 
  seq: 190
  stamp: 
    secs: 1661451411
    nsecs: 692719133
  frame_id: "imu_link"
vector: 
  x: 0.0022071127314120535
  y: 0.0031052157282829285
  z: 0.005882218945771457
---
header: 
  seq: 191
  stamp: 
    secs: 1661451411
    nsecs: 742361007
  frame_id: "imu_link"
vector: 
  x: -0.001715714344754815
  y: 0.00280727562494576
  z: -0.01593425683677197
---
header: 
  seq: 192
  stamp: 
    secs: 1661451411
    nsecs: 792502290
  frame_id: "imu_link"
vector: 
  x: 0.0006615812890231609
  y: -0.0003555603616405279
  z: 0.01483105681836605
---
header: 
  seq: 193
  stamp: 
    secs: 1661451411
    nsecs: 842403968
  frame_id: "imu_link"
vector: 
  x: 0.003575492650270462
  y: 0.00328657915815711
  z: -0.008312313817441465
---
header: 
  seq: 194
  stamp: 
    secs: 1661451411
    nsecs: 892549267
  frame_id: "imu_link"
vector: 
  x: -0.005976719316095115
  y: 0.005452075973153114
  z: -0.003303005592897535
---
header: 
  seq: 195
  stamp: 
    secs: 1661451411
    nsecs: 942181373
  frame_id: "imu_link"
vector: 
  x: 0.0028162384405732155
  y: -0.0011073393980041148
  z: 0.01622945256531239
---
header: 
  seq: 196
  stamp: 
    secs: 1661451411
    nsecs: 992115406
  frame_id: "imu_link"
vector: 
  x: 0.001880172872915864
  y: -0.002634713659062982
  z: -0.024274621158838272
---
header: 
  seq: 197
  stamp: 
    secs: 1661451412
    nsecs:  42806057
  frame_id: "imu_link"
vector: 
  x: -0.0024268170818686485
  y: 0.0033014784567058086
  z: 0.02123881690204144
---
header: 
  seq: 198
  stamp: 
    secs: 1661451412
    nsecs:  93010250
  frame_id: "imu_link"
vector: 
  x: 0.0018546218052506447
  y: 0.003934992942959071
  z: -0.01697568967938423
---
header: 
  seq: 199
  stamp: 
    secs: 1661451412
    nsecs: 142850051
  frame_id: "imu_link"
vector: 
  x: -0.0005862258840352297
  y: 0.0014903735136613252
  z: -0.0008402334642596544
---
header: 
  seq: 200
  stamp: 
    secs: 1661451412
    nsecs: 192905812
  frame_id: "imu_link"
vector: 
  x: -0.00785134267061949
  y: 0.0021823211573064327
  z: -0.012725207023322584
---
header: 
  seq: 201
  stamp: 
    secs: 1661451412
    nsecs: 242948258
  frame_id: "imu_link"
vector: 
  x: 0.0013344327453523874
  y: 0.0016804859042167664
  z: 0.0018492882372811439
---
header: 
  seq: 202
  stamp: 
    secs: 1661451412
    nsecs: 292816460
  frame_id: "imu_link"
vector: 
  x: 0.002355426782742143
  y: 0.004061409272253513
  z: -0.004356557969003917
---
header: 
  seq: 203
  stamp: 
    secs: 1661451412
    nsecs: 342614181
  frame_id: "imu_link"
vector: 
  x: -0.0013502559158951044
  y: 0.0011880068341270091
  z: 0.0023630189243704085
---
header: 
  seq: 204
  stamp: 
    secs: 1661451412
    nsecs: 392359125
  frame_id: "imu_link"
vector: 
  x: 0.0008771847933530807
  y: -9.1774134489242e-05
  z: -0.004646167159080505
---
header: 
  seq: 205
  stamp: 
    secs: 1661451412
    nsecs: 442043695
  frame_id: "imu_link"
vector: 
  x: -0.002294382313266397
  y: 0.0024262939114123587
  z: 0.00011598992568906397
---
header: 
  seq: 206
  stamp: 
    secs: 1661451412
    nsecs: 492719201
  frame_id: "imu_link"
vector: 
  x: -0.0025061178021132946
  y: 0.0031400367151945834
  z: -0.0030784918926656246
---
header: 
  seq: 207
  stamp: 
    secs: 1661451412
    nsecs: 542752497
  frame_id: "imu_link"
vector: 
  x: 0.0005665823700837792
  y: 0.0023340811021625996
  z: -5.417012289399281e-05
---
header: 
  seq: 208
  stamp: 
    secs: 1661451412
    nsecs: 592811920
  frame_id: "imu_link"
vector: 
  x: -0.0020423389505594973
  y: 0.0001587475126143545
  z: -0.0024414977524429564
---
header: 
  seq: 209
  stamp: 
    secs: 1661451412
    nsecs: 642728319
  frame_id: "imu_link"
vector: 
  x: 0.0013116252375766637
  y: 0.0015349955065175893
  z: -0.0015094578266143799
---
header: 
  seq: 210
  stamp: 
    secs: 1661451412
    nsecs: 692967074
  frame_id: "imu_link"
vector: 
  x: -0.001084514893591404
  y: 0.002267743228003383
  z: -0.0037476602010428905
---
header: 
  seq: 211
  stamp: 
    secs: 1661451412
    nsecs: 742602173
  frame_id: "imu_link"
vector: 
  x: -0.0016472486313432455
  y: -0.00014311527775134894
  z: -0.00038640273851342505
---
header: 
  seq: 212
  stamp: 
    secs: 1661451412
    nsecs: 792430806
  frame_id: "imu_link"
vector: 
  x: -0.00015324741252698004
  y: 0.0024618695024400954
  z: -0.002124121878296137
---
header: 
  seq: 213
  stamp: 
    secs: 1661451412
    nsecs: 842623415
  frame_id: "imu_link"
vector: 
  x: -0.0011167830089107158
  y: 0.001557174255140126
  z: -0.00048297614557668567
---
header: 
  seq: 214
  stamp: 
    secs: 1661451412
    nsecs: 892820861
  frame_id: "imu_link"
vector: 
  x: -0.0017526238225400448
  y: 0.0013731197686865928
  z: -0.0017226387280970812
---
header: 
  seq: 215
  stamp: 
    secs: 1661451412
    nsecs: 942917840
  frame_id: "imu_link"
vector: 
  x: -8.367752161575483e-05
  y: 0.004165626130998135
  z: -0.000816448125988245
---
header: 
  seq: 216
  stamp: 
    secs: 1661451412
    nsecs: 992852017
  frame_id: "imu_link"
vector: 
  x: -0.0004175948561169207
  y: 0.0016753835370764138
  z: -0.0001099180371966213
---
header: 
  seq: 217
  stamp: 
    secs: 1661451413
    nsecs:  42678011
  frame_id: "imu_link"
vector: 
  x: -0.0004042830260004849
  y: 0.0009377931128256024
  z: -0.002786744851619005
---
header: 
  seq: 218
  stamp: 
    secs: 1661451413
    nsecs:  92696589
  frame_id: "imu_link"
vector: 
  x: 0.0005104289157316089
  y: 0.0011437396751716735
  z: -0.0020074956119060516
---
header: 
  seq: 219
  stamp: 
    secs: 1661451413
    nsecs: 142537535
  frame_id: "imu_link"
vector: 
  x: -0.002678167307749391
  y: 0.00252342876046896
  z: -0.0020522791892290115
---
header: 
  seq: 220
  stamp: 
    secs: 1661451413
    nsecs: 192445369
  frame_id: "imu_link"
vector: 
  x: -0.0006798696704208851
  y: 0.0029854483436793093
  z: -0.0007519873324781656
---
header: 
  seq: 221
  stamp: 
    secs: 1661451413
    nsecs: 242335780
  frame_id: "imu_link"
vector: 
  x: -0.0006507918005809188
  y: 0.0017505628056824207
  z: -0.0021311335731297736
---
header: 
  seq: 222
  stamp: 
    secs: 1661451413
    nsecs: 292314292
  frame_id: "imu_link"
vector: 
  x: -0.0012544823111966254
  y: 0.0017098840326070786
  z: -0.0004935924080200494
---
header: 
  seq: 223
  stamp: 
    secs: 1661451413
    nsecs: 342044993
  frame_id: "imu_link"
vector: 
  x: -0.0002965847088489682
  y: 0.0018261873628944159
  z: -0.0017629889771342278
---
header: 
  seq: 224
  stamp: 
    secs: 1661451413
    nsecs: 392302972
  frame_id: "imu_link"
vector: 
  x: 0.0003459852887317538
  y: 0.0016732664080336692
  z: -0.0005311728455126286
---
header: 
  seq: 225
  stamp: 
    secs: 1661451413
    nsecs: 442005928
  frame_id: "imu_link"
vector: 
  x: 0.00035033002495765686
  y: -0.0004527746932581067
  z: 0.00019088179396931085
---
header: 
  seq: 226
  stamp: 
    secs: 1661451413
    nsecs: 493022047
  frame_id: "imu_link"
vector: 
  x: 0.0006811544881202282
  y: 0.0024360944516956806
  z: -0.002577620325610042
---
header: 
  seq: 227
  stamp: 
    secs: 1661451413
    nsecs: 542630120
  frame_id: "imu_link"
vector: 
  x: -0.0013536690967157485
  y: 0.0019434797577559948
  z: -0.002264816779643297
---
header: 
  seq: 228
  stamp: 
    secs: 1661451413
    nsecs: 592542709
  frame_id: "imu_link"
vector: 
  x: -0.0001360020396532491
  y: 0.002121326047927141
  z: -0.0005951873608864845
---
header: 
  seq: 229
  stamp: 
    secs: 1661451413
    nsecs: 642744113
  frame_id: "imu_link"
vector: 
  x: -0.0012329218443483114
  y: 0.0020650061778724194
  z: -0.0005526147433556617
---
header: 
  seq: 230
  stamp: 
    secs: 1661451413
    nsecs: 692809017
  frame_id: "imu_link"
vector: 
  x: -0.0016684386646375062
  y: 0.002156824804842472
  z: -0.0009366671438328923
---
header: 
  seq: 231
  stamp: 
    secs: 1661451413
    nsecs: 742728703
  frame_id: "imu_link"
vector: 
  x: 0.0013393186964094639
  y: 0.002273995196446777
  z: -0.0004980754456482829
---
header: 
  seq: 232
  stamp: 
    secs: 1661451413
    nsecs: 792791907
  frame_id: "imu_link"
vector: 
  x: -0.0017035856144502761
  y: 0.0023127850145101547
  z: -0.0013099167263135316
---
header: 
  seq: 233
  stamp: 
    secs: 1661451413
    nsecs: 842651826
  frame_id: "imu_link"
vector: 
  x: -0.0011888360604643822
  y: 0.00240712845697999
  z: -0.0016852706903591754
---
header: 
  seq: 234
  stamp: 
    secs: 1661451413
    nsecs: 892533456
  frame_id: "imu_link"
vector: 
  x: 0.00040624002576805657
  y: 0.0014546697493642569
  z: 0.0009083665790967644
---
header: 
  seq: 235
  stamp: 
    secs: 1661451413
    nsecs: 942264025
  frame_id: "imu_link"
vector: 
  x: -0.00016741317813284695
  y: 0.001321813208051026
  z: -0.002300960244610906
---
header: 
  seq: 236
  stamp: 
    secs: 1661451413
    nsecs: 993072342
  frame_id: "imu_link"
vector: 
  x: 0.0005962430150248111
  y: -0.00017137665417976677
  z: -0.0022644258569926028
---
header: 
  seq: 237
  stamp: 
    secs: 1661451414
    nsecs:  42862114
  frame_id: "imu_link"
vector: 
  x: -0.0003305608115624637
  y: 0.001559521188028157
  z: -0.0018001969438046217
---
header: 
  seq: 238
  stamp: 
    secs: 1661451414
    nsecs:  92759365
  frame_id: "imu_link"
vector: 
  x: 0.0015033566160127523
  y: 0.002923327963799238
  z: -0.0007755783735774459
---
header: 
  seq: 239
  stamp: 
    secs: 1661451414
    nsecs: 142727882
  frame_id: "imu_link"
vector: 
  x: -0.00024450343335047364
  y: 0.001659957808442414
  z: -0.0016378824366256597
---
header: 
  seq: 240
  stamp: 
    secs: 1661451414
    nsecs: 192596384
  frame_id: "imu_link"
vector: 
  x: 0.0011532760690897703
  y: 0.0012817207025364043
  z: 0.0001581160759087652
---
header: 
  seq: 241
  stamp: 
    secs: 1661451414
    nsecs: 242575927
  frame_id: "imu_link"
vector: 
  x: -0.00018002392607741058
  y: 0.0018574297428131104
  z: -0.0009704341064207257
---
header: 
  seq: 242
  stamp: 
    secs: 1661451414
    nsecs: 292427872
  frame_id: "imu_link"
vector: 
  x: 0.0005097517860122026
  y: 0.0009915269911289215
  z: -0.0006042536697350443
---
header: 
  seq: 243
  stamp: 
    secs: 1661451414
    nsecs: 343058145
  frame_id: "imu_link"
vector: 
  x: -0.0004883197252638639
  y: 0.001292526489123702
  z: -0.0002369205467402935
---
header: 
  seq: 244
  stamp: 
    secs: 1661451414
    nsecs: 392324842
  frame_id: "imu_link"
vector: 
  x: -0.0015921383164823055
  y: 0.0020327128004282717
  z: -0.0017030732706189156
---
header: 
  seq: 245
  stamp: 
    secs: 1661451414
    nsecs: 442547744
  frame_id: "imu_link"
vector: 
  x: 0.0003192909935023636
  y: 0.0010973341995850208
  z: -0.0019261350389569998
---
header: 
  seq: 246
  stamp: 
    secs: 1661451414
    nsecs: 493083562
  frame_id: "imu_link"
vector: 
  x: -0.001460196217522025
  y: 0.002489258768036962
  z: -0.0008343206718564034
---
header: 
  seq: 247
  stamp: 
    secs: 1661451414
    nsecs: 542961325
  frame_id: "imu_link"
vector: 
  x: 0.0001383197377435863
  y: 0.0023974983487278227
  z: 0.0011601707665249707
---
header: 
  seq: 248
  stamp: 
    secs: 1661451414
    nsecs: 592136266
  frame_id: "imu_link"
vector: 
  x: 0.00010768612992251293
  y: 0.002035134471952915
  z: -0.003262371057644487
---
header: 
  seq: 249
  stamp: 
    secs: 1661451414
    nsecs: 643102564
  frame_id: "imu_link"
vector: 
  x: -0.0007441872730851173
  y: 0.0016785282641649246
  z: 0.00020108501485083255
---
header: 
  seq: 250
  stamp: 
    secs: 1661451414
    nsecs: 692533723
  frame_id: "imu_link"
vector: 
  x: -0.0010801353491842747
  y: 0.0026686650235205893
  z: -0.004083176143467426
---
header: 
  seq: 251
  stamp: 
    secs: 1661451414
    nsecs: 743103015
  frame_id: "imu_link"
vector: 
  x: -0.0017478051595389843
  y: 0.001930268597789109
  z: -0.0003067325160373003
---
header: 
  seq: 252
  stamp: 
    secs: 1661451414
    nsecs: 792173369
  frame_id: "imu_link"
vector: 
  x: -0.0014275227440521123
  y: 0.0034144967794418335
  z: -0.0030951083172112708
---
header: 
  seq: 253
  stamp: 
    secs: 1661451414
    nsecs: 843122044
  frame_id: "imu_link"
vector: 
  x: -0.0005358069320209325
  y: 0.0019742453005164866
  z: -0.0005799571517854929
---
header: 
  seq: 254
  stamp: 
    secs: 1661451414
    nsecs: 893015035
  frame_id: "imu_link"
vector: 
  x: -0.0021152917761355643
  y: 0.0007706083124503493
  z: -0.0013076154282316568
---
header: 
  seq: 255
  stamp: 
    secs: 1661451414
    nsecs: 942745434
  frame_id: "imu_link"
vector: 
  x: 2.9089582312735732e-05
  y: 0.0031452556140720844
  z: -0.0002882450935430825
---
header: 
  seq: 256
  stamp: 
    secs: 1661451414
    nsecs: 993044597
  frame_id: "imu_link"
vector: 
  x: -0.0009141652844846249
  y: 0.0010121302912011745
  z: -0.0010090842843055725
---
header: 
  seq: 257
  stamp: 
    secs: 1661451415
    nsecs:  42882330
  frame_id: "imu_link"
vector: 
  x: -9.907757339533418e-05
  y: 0.0007529299473389983
  z: -0.0026162110734730963
---
header: 
  seq: 258
  stamp: 
    secs: 1661451415
    nsecs:  92727271
  frame_id: "imu_link"
vector: 
  x: -0.0016378448344767094
  y: 0.002889787079766393
  z: -0.0017691534012556076
---
header: 
  seq: 259
  stamp: 
    secs: 1661451415
    nsecs: 142532461
  frame_id: "imu_link"
vector: 
  x: -0.0012309846933931112
  y: 0.0023122022394090895
  z: -0.0017582679865881803
---
header: 
  seq: 260
  stamp: 
    secs: 1661451415
    nsecs: 193032703
  frame_id: "imu_link"
vector: 
  x: 0.0009769708849489689
  y: 0.0017659679288044574
  z: -0.0009454454993829131
---
header: 
  seq: 261
  stamp: 
    secs: 1661451415
    nsecs: 242849211
  frame_id: "imu_link"
vector: 
  x: -0.00013146523269824684
  y: 0.002039751037955284
  z: 0.0004172092594671995
---
header: 
  seq: 262
  stamp: 
    secs: 1661451415
    nsecs: 293070505
  frame_id: "imu_link"
vector: 
  x: 0.0005520560080185533
  y: 0.000995576265268028
  z: 0.00043437129352241755
---
header: 
  seq: 263
  stamp: 
    secs: 1661451415
    nsecs: 342828353
  frame_id: "imu_link"
vector: 
  x: -0.0014172635274007919
  y: 0.0032928884029388428
  z: -0.006190326064825058
---
header: 
  seq: 264
  stamp: 
    secs: 1661451415
    nsecs: 393159868
  frame_id: "imu_link"
vector: 
  x: -0.0011564430315047503
  y: -0.0005871178000234069
  z: 0.001273168483749032
---
header: 
  seq: 265
  stamp: 
    secs: 1661451415
    nsecs: 442917997
  frame_id: "imu_link"
vector: 
  x: 0.0014541480923071506
  y: 0.003671810263767839
  z: -0.0022265836596488953
---
header: 
  seq: 266
  stamp: 
    secs: 1661451415
    nsecs: 492899771
  frame_id: "imu_link"
vector: 
  x: -0.0013635180657729509
  y: 0.0021597808226943016
  z: -0.0012221910292282703
---
header: 
  seq: 267
  stamp: 
    secs: 1661451415
    nsecs: 542701349
  frame_id: "imu_link"
vector: 
  x: -0.0016177574871107938
  y: 0.0028733047656714916
  z: -0.0003716126666404307
---
header: 
  seq: 268
  stamp: 
    secs: 1661451415
    nsecs: 593006728
  frame_id: "imu_link"
vector: 
  x: 0.0008420501253567637
  y: 0.0019902666099369526
  z: -0.002739297924563289
---
header: 
  seq: 269
  stamp: 
    secs: 1661451415
    nsecs: 643075052
  frame_id: "imu_link"
vector: 
  x: 0.0006321467226371169
  y: 0.003324090503156185
  z: -0.0010200069518759849
---
header: 
  seq: 270
  stamp: 
    secs: 1661451415
    nsecs: 692843828
  frame_id: "imu_link"
vector: 
  x: -0.00037665810668841004
  y: 0.002569786505773664
  z: -0.0031288638710975647
---
header: 
  seq: 271
  stamp: 
    secs: 1661451415
    nsecs: 742551759
  frame_id: "imu_link"
vector: 
  x: 0.0004574874765239656
  y: 0.00344705511815846
  z: -0.002648608991876245
---
header: 
  seq: 272
  stamp: 
    secs: 1661451415
    nsecs: 792776415
  frame_id: "imu_link"
vector: 
  x: -0.0007912676082924008
  y: 0.0024716460611671214
  z: 0.00023872285964898765
---
header: 
  seq: 273
  stamp: 
    secs: 1661451415
    nsecs: 842475636
  frame_id: "imu_link"
vector: 
  x: -2.2198104488779794e-05
  y: 0.003949778620153666
  z: -0.0026129912585020065
---
header: 
  seq: 274
  stamp: 
    secs: 1661451415
    nsecs: 892361009
  frame_id: "imu_link"
vector: 
  x: -0.0016410606913268566
  y: 0.003164347959682346
  z: -0.0012316529173403978
---
header: 
  seq: 275
  stamp: 
    secs: 1661451415
    nsecs: 943027502
  frame_id: "imu_link"
vector: 
  x: 1.752121715981048e-05
  y: 0.0029094116762280464
  z: -0.0014844704419374466
---
header: 
  seq: 276
  stamp: 
    secs: 1661451415
    nsecs: 992825858
  frame_id: "imu_link"
vector: 
  x: -0.00041873773443512624
  y: 0.002382089849561453
  z: -0.0012560997856780889
---
header: 
  seq: 277
  stamp: 
    secs: 1661451416
    nsecs:  43082998
  frame_id: "imu_link"
vector: 
  x: -0.0014671402750536802
  y: 0.00256441324017942
  z: -0.0028985883109271526
---
header: 
  seq: 278
  stamp: 
    secs: 1661451416
    nsecs:  92846127
  frame_id: "imu_link"
vector: 
  x: 0.0006137705640867352
  y: 0.0013062193756923082
  z: -0.0009946790523827076
---
header: 
  seq: 279
  stamp: 
    secs: 1661451416
    nsecs: 142598060
  frame_id: "imu_link"
vector: 
  x: -0.0012759454548358917
  y: 0.003942409064620734
  z: -0.00019948546832893046
---
header: 
  seq: 280
  stamp: 
    secs: 1661451416
    nsecs: 192378114
  frame_id: "imu_link"
vector: 
  x: -0.0010956862242892387
  y: 0.002177208662033081
  z: -0.0028755681123584513
---
header: 
  seq: 281
  stamp: 
    secs: 1661451416
    nsecs: 242988338
  frame_id: "imu_link"
vector: 
  x: 1.6578858776483685e-05
  y: 0.0019716713577508926
  z: -0.001422008383087814
---
header: 
  seq: 282
  stamp: 
    secs: 1661451416
    nsecs: 293192690
  frame_id: "imu_link"
vector: 
  x: -0.0019450613763183355
  y: 0.00088583113392815
  z: -0.0016763294115662575
---
header: 
  seq: 283
  stamp: 
    secs: 1661451416
    nsecs: 342812106
  frame_id: "imu_link"
vector: 
  x: -0.000651962123811245
  y: 0.002729327185079456
  z: -0.004962846171110869
---
header: 
  seq: 284
  stamp: 
    secs: 1661451416
    nsecs: 392705456
  frame_id: "imu_link"
vector: 
  x: -0.0009523812914267182
  y: 0.0001425761001883075
  z: -0.00044165365397930145
---
header: 
  seq: 285
  stamp: 
    secs: 1661451416
    nsecs: 442673035
  frame_id: "imu_link"
vector: 
  x: -0.00024376467627007517
  y: 0.0020620923023670916
  z: -0.0026849741116166115
---
header: 
  seq: 286
  stamp: 
    secs: 1661451416
    nsecs: 493229797
  frame_id: "imu_link"
vector: 
  x: 0.00047530306619592016
  y: 0.0005585376638919115
  z: 0.0026121682021766905
---
header: 
  seq: 287
  stamp: 
    secs: 1661451416
    nsecs: 542831477
  frame_id: "imu_link"
vector: 
  x: 0.0015715394401922824
  y: 0.0001738191640470177
  z: -0.001701566856354475
---
header: 
  seq: 288
  stamp: 
    secs: 1661451416
    nsecs: 592577606
  frame_id: "imu_link"
vector: 
  x: -0.0038885453250259165
  y: 0.007630512118339539
  z: -0.003032790264114738
---
header: 
  seq: 289
  stamp: 
    secs: 1661451416
    nsecs: 643076470
  frame_id: "imu_link"
vector: 
  x: 0.004331675823777915
  y: -0.0002571358636487276
  z: 0.007429162040352821
---
header: 
  seq: 290
  stamp: 
    secs: 1661451416
    nsecs: 693118432
  frame_id: "imu_link"
vector: 
  x: -0.002880851738154888
  y: 0.003099697874858976
  z: -0.009662343189120293
---
header: 
  seq: 291
  stamp: 
    secs: 1661451416
    nsecs: 742878785
  frame_id: "imu_link"
vector: 
  x: -0.004107010085135699
  y: 0.0038619711995124817
  z: 0.004397598095238209
---
header: 
  seq: 292
  stamp: 
    secs: 1661451416
    nsecs: 792921204
  frame_id: "imu_link"
vector: 
  x: 0.0018667581025511026
  y: 0.001204688451252878
  z: -0.00693495012819767
---
header: 
  seq: 293
  stamp: 
    secs: 1661451416
    nsecs: 842606815
  frame_id: "imu_link"
vector: 
  x: -0.00017232922255061567
  y: 0.0026050512678921223
  z: 0.0023247341159731154
---
header: 
  seq: 294
  stamp: 
    secs: 1661451416
    nsecs: 892559332
  frame_id: "imu_link"
vector: 
  x: -0.0014934209175407887
  y: 0.00390467350371182
  z: -0.004295985214412212
---
header: 
  seq: 295
  stamp: 
    secs: 1661451416
    nsecs: 943162841
  frame_id: "imu_link"
vector: 
  x: 0.003142671892419458
  y: 0.002588971983641386
  z: 0.001812333706766367
---
header: 
  seq: 296
  stamp: 
    secs: 1661451416
    nsecs: 992499505
  frame_id: "imu_link"
vector: 
  x: -0.0037778418045490984
  y: 0.002390834502875805
  z: -0.002698204712942243
---
header: 
  seq: 297
  stamp: 
    secs: 1661451417
    nsecs:  42280482
  frame_id: "imu_link"
vector: 
  x: 1.2269919352547733e-05
  y: 0.0010968655114993455
  z: -0.0004342527827247977
---
header: 
  seq: 298
  stamp: 
    secs: 1661451417
    nsecs:  93130714
  frame_id: "imu_link"
vector: 
  x: 0.001038957154378295
  y: 0.0025817218702286486
  z: -0.00143208890222013
---
header: 
  seq: 299
  stamp: 
    secs: 1661451417
    nsecs: 142701174
  frame_id: "imu_link"
vector: 
  x: -0.00283863116055727
  y: 0.0010870295809581878
  z: -0.002071477705612779
---
header: 
  seq: 300
  stamp: 
    secs: 1661451417
    nsecs: 192795653
  frame_id: "imu_link"
vector: 
  x: 0.0009191852295771241
  y: 0.0012780659599229696
  z: -6.74668699502945e-05
---
header: 
  seq: 301
  stamp: 
    secs: 1661451417
    nsecs: 242693409
  frame_id: "imu_link"
vector: 
  x: -0.0006597129395231605
  y: 0.002085020300000906
  z: -0.002202649367973209
---
header: 
  seq: 302
  stamp: 
    secs: 1661451417
    nsecs: 292586266
  frame_id: "imu_link"
vector: 
  x: -0.003067334415391088
  y: 0.0005677309818565845
  z: -0.00017807622498366984
---
header: 
  seq: 303
  stamp: 
    secs: 1661451417
    nsecs: 343307067
  frame_id: "imu_link"
vector: 
  x: 0.002226629061624408
  y: 0.0023517138324677944
  z: -0.004033949226140976
---
header: 
  seq: 304
  stamp: 
    secs: 1661451417
    nsecs: 392609291
  frame_id: "imu_link"
vector: 
  x: -0.0012184269726276398
  y: 0.0016237132949754598
  z: -0.001626851735636592
---
header: 
  seq: 305
  stamp: 
    secs: 1661451417
    nsecs: 443074871
  frame_id: "imu_link"
vector: 
  x: -0.0014594126259908082
  y: 0.0010143300751224162
  z: -0.0019448497332632542
---
header: 
  seq: 306
  stamp: 
    secs: 1661451417
    nsecs: 493067857
  frame_id: "imu_link"
vector: 
  x: 0.0011233611730858686
  y: 0.0014374004676938057
  z: 0.000703585392329842
---
header: 
  seq: 307
  stamp: 
    secs: 1661451417
    nsecs: 542635482
  frame_id: "imu_link"
vector: 
  x: -0.0021523891482502226
  y: 0.004333163611590862
  z: -0.0035154675133526325
---
header: 
  seq: 308
  stamp: 
    secs: 1661451417
    nsecs: 592573671
  frame_id: "imu_link"
vector: 
  x: 0.0027801950927823786
  y: 0.0007691137725487351
  z: 0.0022593711037188773
---
header: 
  seq: 309
  stamp: 
    secs: 1661451417
    nsecs: 642578707
  frame_id: "imu_link"
vector: 
  x: -0.0014690386597067118
  y: 0.0035352646373212337
  z: -0.00300931534729898
---
header: 
  seq: 310
  stamp: 
    secs: 1661451417
    nsecs: 692494683
  frame_id: "imu_link"
vector: 
  x: -0.0031185797415673733
  y: 0.0036732445005327467
  z: -0.00027114583645015955
---
header: 
  seq: 311
  stamp: 
    secs: 1661451417
    nsecs: 743117790
  frame_id: "imu_link"
vector: 
  x: 0.0012237385381013155
  y: 0.001721025328151882
  z: -0.0026091223116964106
---
header: 
  seq: 312
  stamp: 
    secs: 1661451417
    nsecs: 793015287
  frame_id: "imu_link"
vector: 
  x: -0.0027228351682424545
  y: 0.0025996996555477385
  z: -0.0013456603046506643
---
header: 
  seq: 313
  stamp: 
    secs: 1661451417
    nsecs: 843002558
  frame_id: "imu_link"
vector: 
  x: -0.0018707573181018235
  y: 0.0032000278588384394
  z: -0.0016215431969612837
---
header: 
  seq: 314
  stamp: 
    secs: 1661451417
    nsecs: 892391548
  frame_id: "imu_link"
vector: 
  x: -4.818053639610298e-06
  y: 0.001992756268009544
  z: -0.0013466801028698683
---
header: 
  seq: 315
  stamp: 
    secs: 1661451417
    nsecs: 943334118
  frame_id: "imu_link"
vector: 
  x: -0.00018949960940517485
  y: 0.00010817980364663528
  z: -0.002100572688505054
---
header: 
  seq: 316
  stamp: 
    secs: 1661451417
    nsecs: 993420194
  frame_id: "imu_link"
vector: 
  x: -8.258070010924713e-05
  y: 0.0039002415724098682
  z: -0.0010191231267526748
---
header: 
  seq: 317
  stamp: 
    secs: 1661451418
    nsecs:  43258051
  frame_id: "imu_link"
vector: 
  x: -0.0006294427439570427
  y: 0.002501829992979765
  z: -0.0028721063863486056
---
header: 
  seq: 318
  stamp: 
    secs: 1661451418
    nsecs:  93008644
  frame_id: "imu_link"
vector: 
  x: -0.0007437641615979375
  y: 0.0013050604611635208
  z: -0.001234926865436137
---
header: 
  seq: 319
  stamp: 
    secs: 1661451418
    nsecs: 142750160
  frame_id: "imu_link"
vector: 
  x: 0.0012961211614310741
  y: 0.0014207105850800874
