header: 
  seq: 1
  stamp: 
    secs: 1661451402
    nsecs: 494085788
  frame_id: "chassis_init"
child_frame_id: "wheel_odom"
pose: 
  pose: 
    position: 
      x: -0.00018514735247542274
      y: 5.991818271980493e-08
      z: 0.0
    orientation: 
      x: 0.0
      y: 0.0
      z: 0.00021290405565319484
      w: 0.9999999773359313
  covariance: [0.05, 0.05, 0.0, 0.0, 0.0, 0.5, 0.05, 0.05, 0.0, 0.0, 0.0, 0.05, 0.0, 0.0, 0.1, 0.0, 0.0, 0.0, 0.0, 0.0, 0.0, 0.1, 0.0, 0.0, 0.0, 0.0, 0.0, 0.0, 0.1, 0.0, 0.5, 0.05, 0.0, 0.0, 0.0, 5.0]
twist: 
  twist: 
    linear: 
      x: 0.0
      y: 0.0
      z: 0.0
    angular: 
      x: 0.0
      y: 0.0
      z: 0.0
  covariance: [0.05, 0.05, 0.0, 0.0, 0.0, 0.5, 0.05, 0.05, 0.0, 0.0, 0.0, 0.05, 0.0, 0.0, 0.1, 0.0, 0.0, 0.0, 0.0, 0.0, 0.0, 0.1, 0.0, 0.0, 0.0, 0.0, 0.0, 0.0, 0.1, 0.0, 0.5, 0.05, 0.0, 0.0, 0.0, 5.0]
---
header: 
  seq: 2
  stamp: 
    secs: 1661451402
    nsecs: 694042444
  frame_id: "chassis_init"
child_frame_id: "wheel_odom"
pose: 
  pose: 
    position: 
      x: -0.00018514735247542274
      y: 5.991818271980493e-08
      z: 0.0
    orientation: 
      x: 0.0
      y: 0.0
      z: 0.00021290405565319484
      w: 0.9999999773359313
  covariance: [0.05, 0.05, 0.0, 0.0, 0.0, 0.5, 0.05, 0.05, 0.0, 0.0, 0.0, 0.05, 0.0, 0.0, 0.1, 0.0, 0.0, 0.0, 0.0, 0.0, 0.0, 0.1, 0.0, 0.0, 0.0, 0.0, 0.0, 0.0, 0.1, 0.0, 0.5, 0.05, 0.0, 0.0, 0.0, 5.0]
twist: 
  twist: 
    linear: 
      x: 0.0
      y: 0.0
      z: 0.0
    angular: 
      x: 0.0
      y: 0.0
      z: 0.0
  covariance: [0.05, 0.05, 0.0, 0.0, 0.0, 0.5, 0.05, 0.05, 0.0, 0.0, 0.0, 0.05, 0.0, 0.0, 0.1, 0.0, 0.0, 0.0, 0.0, 0.0, 0.0, 0.1, 0.0, 0.0, 0.0, 0.0, 0.0, 0.0, 0.1, 0.0, 0.5, 0.05, 0.0, 0.0, 0.0, 5.0]
---
header: 
  seq: 3
  stamp: 
    secs: 1661451402
    nsecs: 893991947
  frame_id: "chassis_init"
child_frame_id: "wheel_odom"
pose: 
  pose: 
    position: 
      x: -0.00014811799058212253
      y: 7.568558644253246e-08
      z: 0.0
    orientation: 
      x: 0.0
      y: 0.0
      z: 0.00017034857584005618
      w: 0.9999999854906813
  covariance: [0.05, 0.05, 0.0, 0.0, 0.0, 0.5, 0.05, 0.05, 0.0, 0.0, 0.0, 0.05, 0.0, 0.0, 0.1, 0.0, 0.0, 0.0, 0.0, 0.0, 0.0, 0.1, 0.0, 0.0, 0.0, 0.0, 0.0, 0.0, 0.1, 0.0, 0.5, 0.05, 0.0, 0.0, 0.0, 5.0]
twist: 
  twist: 
    linear: 
      x: 0.0001851935849044851
      y: 0.0
      z: 0.0
    angular: 
      x: 0.0
      y: 0.0
      z: -0.0004256622794346156
  covariance: [0.05, 0.05, 0.0, 0.0, 0.0, 0.5, 0.05, 0.05, 0.0, 0.0, 0.0, 0.05, 0.0, 0.0, 0.1, 0.0, 0.0, 0.0, 0.0, 0.0, 0.0, 0.1, 0.0, 0.0, 0.0, 0.0, 0.0, 0.0, 0.1, 0.0, 0.5, 0.05, 0.0, 0.0, 0.0, 5.0]
---
header: 
  seq: 4
  stamp: 
    secs: 1661451403
    nsecs:  94104051
  frame_id: "chassis_init"
child_frame_id: "wheel_odom"
pose: 
  pose: 
    position: 
      x: -0.00014811799058212253
      y: 7.568558644253246e-08
      z: 0.0
    orientation: 
      x: 0.0
      y: 0.0
      z: 0.00017034857584005618
      w: 0.9999999854906813
  covariance: [0.05, 0.05, 0.0, 0.0, 0.0, 0.5, 0.05, 0.05, 0.0, 0.0, 0.0, 0.05, 0.0, 0.0, 0.1, 0.0, 0.0, 0.0, 0.0, 0.0, 0.0, 0.1, 0.0, 0.0, 0.0, 0.0, 0.0, 0.0, 0.1, 0.0, 0.5, 0.05, 0.0, 0.0, 0.0, 5.0]
twist: 
  twist: 
    linear: 
      x: 0.0
      y: 0.0
      z: 0.0
    angular: 
      x: 0.0
      y: 0.0
      z: 0.0
  covariance: [0.05, 0.05, 0.0, 0.0, 0.0, 0.5, 0.05, 0.05, 0.0, 0.0, 0.0, 0.05, 0.0, 0.0, 0.1, 0.0, 0.0, 0.0, 0.0, 0.0, 0.0, 0.1, 0.0, 0.0, 0.0, 0.0, 0.0, 0.0, 0.1, 0.0, 0.5, 0.05, 0.0, 0.0, 0.0, 5.0]
---
header: 
  seq: 5
  stamp: 
    secs: 1661451403
    nsecs: 294011354
  frame_id: "chassis_init"
child_frame_id: "wheel_odom"
pose: 
  pose: 
    position: 
      x: -0.00014811799058212253
      y: 7.568558644253246e-08
      z: 0.0
    orientation: 
      x: 0.0
      y: 0.0
      z: 0.00017034857584005618
      w: 0.9999999854906813
  covariance: [0.05, 0.05, 0.0, 0.0, 0.0, 0.5, 0.05, 0.05, 0.0, 0.0, 0.0, 0.05, 0.0, 0.0, 0.1, 0.0, 0.0, 0.0, 0.0, 0.0, 0.0, 0.1, 0.0, 0.0, 0.0, 0.0, 0.0, 0.0, 0.1, 0.0, 0.5, 0.05, 0.0, 0.0, 0.0, 5.0]
twist: 
  twist: 
    linear: 
      x: 0.0
      y: 0.0
      z: 0.0
    angular: 
      x: 0.0
      y: 0.0
      z: 0.0
  covariance: [0.05, 0.05, 0.0, 0.0, 0.0, 0.5, 0.05, 0.05, 0.0, 0.0, 0.0, 0.05, 0.0, 0.0, 0.1, 0.0, 0.0, 0.0, 0.0, 0.0, 0.0, 0.1, 0.0, 0.0, 0.0, 0.0, 0.0, 0.0, 0.1, 0.0, 0.5, 0.05, 0.0, 0.0, 0.0, 5.0]
---
header: 
  seq: 6
  stamp: 
    secs: 1661451403
    nsecs: 493993759
  frame_id: "chassis_init"
child_frame_id: "wheel_odom"
pose: 
  pose: 
    position: 
      x: -0.00014811799058212253
      y: 7.568558644253246e-08
      z: 0.0
    orientation: 
      x: 0.0
      y: 0.0
      z: 0.00017034857584005618
      w: 0.9999999854906813
  covariance: [0.05, 0.05, 0.0, 0.0, 0.0, 0.5, 0.05, 0.05, 0.0, 0.0, 0.0, 0.05, 0.0, 0.0, 0.1, 0.0, 0.0, 0.0, 0.0, 0.0, 0.0, 0.1, 0.0, 0.0, 0.0, 0.0, 0.0, 0.0, 0.1, 0.0, 0.5, 0.05, 0.0, 0.0, 0.0, 5.0]
twist: 
  twist: 
    linear: 
      x: 0.0
      y: 0.0
      z: 0.0
    angular: 
      x: 0.0
      y: 0.0
      z: 0.0
  covariance: [0.05, 0.05, 0.0, 0.0, 0.0, 0.5, 0.05, 0.05, 0.0, 0.0, 0.0, 0.05, 0.0, 0.0, 0.1, 0.0, 0.0, 0.0, 0.0, 0.0, 0.0, 0.1, 0.0, 0.0, 0.0, 0.0, 0.0, 0.0, 0.1, 0.0, 0.5, 0.05, 0.0, 0.0, 0.0, 5.0]
---
header: 
  seq: 7
  stamp: 
    secs: 1661451403
    nsecs: 694187879
  frame_id: "chassis_init"
child_frame_id: "wheel_odom"
pose: 
  pose: 
    position: 
      x: -0.00014811799058212253
      y: 7.568558644253246e-08
      z: 0.0
    orientation: 
      x: 0.0
      y: 0.0
      z: 0.00017034857584005618
      w: 0.9999999854906813
  covariance: [0.05, 0.05, 0.0, 0.0, 0.0, 0.5, 0.05, 0.05, 0.0, 0.0, 0.0, 0.05, 0.0, 0.0, 0.1, 0.0, 0.0, 0.0, 0.0, 0.0, 0.0, 0.1, 0.0, 0.0, 0.0, 0.0, 0.0, 0.0, 0.1, 0.0, 0.5, 0.05, 0.0, 0.0, 0.0, 5.0]
twist: 
  twist: 
    linear: 
      x: 0.0
      y: 0.0
      z: 0.0
    angular: 
      x: 0.0
      y: 0.0
      z: 0.0
  covariance: [0.05, 0.05, 0.0, 0.0, 0.0, 0.5, 0.05, 0.05, 0.0, 0.0, 0.0, 0.05, 0.0, 0.0, 0.1, 0.0, 0.0, 0.0, 0.0, 0.0, 0.0, 0.1, 0.0, 0.0, 0.0, 0.0, 0.0, 0.0, 0.1, 0.0, 0.5, 0.05, 0.0, 0.0, 0.0, 5.0]
---
header: 
  seq: 8
  stamp: 
    secs: 1661451403
    nsecs: 894028663
  frame_id: "chassis_init"
child_frame_id: "wheel_odom"
pose: 
  pose: 
    position: 
      x: -0.00014811799058212253
      y: 7.568558644253246e-08
      z: 0.0
    orientation: 
      x: 0.0
      y: 0.0
      z: 0.00017034857584005618
      w: 0.9999999854906813
  covariance: [0.05, 0.05, 0.0, 0.0, 0.0, 0.5, 0.05, 0.05, 0.0, 0.0, 0.0, 0.05, 0.0, 0.0, 0.1, 0.0, 0.0, 0.0, 0.0, 0.0, 0.0, 0.1, 0.0, 0.0, 0.0, 0.0, 0.0, 0.0, 0.1, 0.0, 0.5, 0.05, 0.0, 0.0, 0.0, 5.0]
twist: 
  twist: 
    linear: 
      x: 0.0
      y: 0.0
      z: 0.0
    angular: 
      x: 0.0
      y: 0.0
      z: 0.0
  covariance: [0.05, 0.05, 0.0, 0.0, 0.0, 0.5, 0.05, 0.05, 0.0, 0.0, 0.0, 0.05, 0.0, 0.0, 0.1, 0.0, 0.0, 0.0, 0.0, 0.0, 0.0, 0.1, 0.0, 0.0, 0.0, 0.0, 0.0, 0.0, 0.1, 0.0, 0.5, 0.05, 0.0, 0.0, 0.0, 5.0]
---
header: 
  seq: 9
  stamp: 
    secs: 1661451404
    nsecs:  94576835
  frame_id: "chassis_init"
child_frame_id: "wheel_odom"
pose: 
  pose: 
    position: 
      x: -0.00014811799058212253
      y: 7.568558644253246e-08
      z: 0.0
    orientation: 
      x: 0.0
      y: 0.0
      z: 0.00017034857584005618
      w: 0.9999999854906813
  covariance: [0.05, 0.05, 0.0, 0.0, 0.0, 0.5, 0.05, 0.05, 0.0, 0.0, 0.0, 0.05, 0.0, 0.0, 0.1, 0.0, 0.0, 0.0, 0.0, 0.0, 0.0, 0.1, 0.0, 0.0, 0.0, 0.0, 0.0, 0.0, 0.1, 0.0, 0.5, 0.05, 0.0, 0.0, 0.0, 5.0]
twist: 
  twist: 
    linear: 
      x: 0.0
      y: 0.0
      z: 0.0
    angular: 
      x: 0.0
      y: 0.0
      z: 0.0
  covariance: [0.05, 0.05, 0.0, 0.0, 0.0, 0.5, 0.05, 0.05, 0.0, 0.0, 0.0, 0.05, 0.0, 0.0, 0.1, 0.0, 0.0, 0.0, 0.0, 0.0, 0.0, 0.1, 0.0, 0.0, 0.0, 0.0, 0.0, 0.0, 0.1, 0.0, 0.5, 0.05, 0.0, 0.0, 0.0, 5.0]
---
header: 
  seq: 10
  stamp: 
    secs: 1661451404
    nsecs: 293990850
  frame_id: "chassis_init"
child_frame_id: "wheel_odom"
pose: 
  pose: 
    position: 
      x: -0.00014811799058212253
      y: 7.568558644253246e-08
      z: 0.0
    orientation: 
      x: 0.0
      y: 0.0
      z: 0.00017034857584005618
      w: 0.9999999854906813
  covariance: [0.05, 0.05, 0.0, 0.0, 0.0, 0.5, 0.05, 0.05, 0.0, 0.0, 0.0, 0.05, 0.0, 0.0, 0.1, 0.0, 0.0, 0.0, 0.0, 0.0, 0.0, 0.1, 0.0, 0.0, 0.0, 0.0, 0.0, 0.0, 0.1, 0.0, 0.5, 0.05, 0.0, 0.0, 0.0, 5.0]
twist: 
  twist: 
    linear: 
      x: 0.0
      y: 0.0
      z: 0.0
    angular: 
      x: 0.0
      y: 0.0
      z: 0.0
  covariance: [0.05, 0.05, 0.0, 0.0, 0.0, 0.5, 0.05, 0.05, 0.0, 0.0, 0.0, 0.05, 0.0, 0.0, 0.1, 0.0, 0.0, 0.0, 0.0, 0.0, 0.0, 0.1, 0.0, 0.0, 0.0, 0.0, 0.0, 0.0, 0.1, 0.0, 0.5, 0.05, 0.0, 0.0, 0.0, 5.0]
---
header: 
  seq: 11
  stamp: 
    secs: 1661451404
    nsecs: 494022607
  frame_id: "chassis_init"
child_frame_id: "wheel_odom"
pose: 
  pose: 
    position: 
      x: -0.00014811799058212253
      y: 7.568558644253246e-08
      z: 0.0
    orientation: 
      x: 0.0
      y: 0.0
      z: 0.00017034857584005618
      w: 0.9999999854906813
  covariance: [0.05, 0.05, 0.0, 0.0, 0.0, 0.5, 0.05, 0.05, 0.0, 0.0, 0.0, 0.05, 0.0, 0.0, 0.1, 0.0, 0.0, 0.0, 0.0, 0.0, 0.0, 0.1, 0.0, 0.0, 0.0, 0.0, 0.0, 0.0, 0.1, 0.0, 0.5, 0.05, 0.0, 0.0, 0.0, 5.0]
twist: 
  twist: 
    linear: 
      x: 0.0
      y: 0.0
      z: 0.0
    angular: 
      x: 0.0
      y: 0.0
      z: 0.0
  covariance: [0.05, 0.05, 0.0, 0.0, 0.0, 0.5, 0.05, 0.05, 0.0, 0.0, 0.0, 0.05, 0.0, 0.0, 0.1, 0.0, 0.0, 0.0, 0.0, 0.0, 0.0, 0.1, 0.0, 0.0, 0.0, 0.0, 0.0, 0.0, 0.1, 0.0, 0.5, 0.05, 0.0, 0.0, 0.0, 5.0]
---
header: 
  seq: 12
  stamp: 
    secs: 1661451404
    nsecs: 693990468
  frame_id: "chassis_init"
child_frame_id: "wheel_odom"
pose: 
  pose: 
    position: 
      x: -0.00014811799058212253
      y: 7.568558644253246e-08
      z: 0.0
    orientation: 
      x: 0.0
      y: 0.0
      z: 0.00017034857584005618
      w: 0.9999999854906813
  covariance: [0.05, 0.05, 0.0, 0.0, 0.0, 0.5, 0.05, 0.05, 0.0, 0.0, 0.0, 0.05, 0.0, 0.0, 0.1, 0.0, 0.0, 0.0, 0.0, 0.0, 0.0, 0.1, 0.0, 0.0, 0.0, 0.0, 0.0, 0.0, 0.1, 0.0, 0.5, 0.05, 0.0, 0.0, 0.0, 5.0]
twist: 
  twist: 
    linear: 
      x: 0.0
      y: 0.0
      z: 0.0
    angular: 
      x: 0.0
      y: 0.0
      z: 0.0
  covariance: [0.05, 0.05, 0.0, 0.0, 0.0, 0.5, 0.05, 0.05, 0.0, 0.0, 0.0, 0.05, 0.0, 0.0, 0.1, 0.0, 0.0, 0.0, 0.0, 0.0, 0.0, 0.1, 0.0, 0.0, 0.0, 0.0, 0.0, 0.0, 0.1, 0.0, 0.5, 0.05, 0.0, 0.0, 0.0, 5.0]
---
header: 
  seq: 13
  stamp: 
    secs: 1661451404
    nsecs: 894015550
  frame_id: "chassis_init"
child_frame_id: "wheel_odom"
pose: 
  pose: 
    position: 
      x: -0.00014811799058212253
      y: 7.568558644253246e-08
      z: 0.0
    orientation: 
      x: 0.0
      y: 0.0
      z: 0.00017034857584005618
      w: 0.9999999854906813
  covariance: [0.05, 0.05, 0.0, 0.0, 0.0, 0.5, 0.05, 0.05, 0.0, 0.0, 0.0, 0.05, 0.0, 0.0, 0.1, 0.0, 0.0, 0.0, 0.0, 0.0, 0.0, 0.1, 0.0, 0.0, 0.0, 0.0, 0.0, 0.0, 0.1, 0.0, 0.5, 0.05, 0.0, 0.0, 0.0, 5.0]
twist: 
  twist: 
    linear: 
      x: 0.0
      y: 0.0
      z: 0.0
    angular: 
      x: 0.0
      y: 0.0
      z: 0.0
  covariance: [0.05, 0.05, 0.0, 0.0, 0.0, 0.5, 0.05, 0.05, 0.0, 0.0, 0.0, 0.05, 0.0, 0.0, 0.1, 0.0, 0.0, 0.0, 0.0, 0.0, 0.0, 0.1, 0.0, 0.0, 0.0, 0.0, 0.0, 0.0, 0.1, 0.0, 0.5, 0.05, 0.0, 0.0, 0.0, 5.0]
---
header: 
  seq: 14
  stamp: 
    secs: 1661451405
    nsecs:  93987464
  frame_id: "chassis_init"
child_frame_id: "wheel_odom"
pose: 
  pose: 
    position: 
      x: -0.00014811799058212253
      y: 7.568558644253246e-08
      z: 0.0
    orientation: 
      x: 0.0
      y: 0.0
      z: 0.00017034857584005618
      w: 0.9999999854906813
  covariance: [0.05, 0.05, 0.0, 0.0, 0.0, 0.5, 0.05, 0.05, 0.0, 0.0, 0.0, 0.05, 0.0, 0.0, 0.1, 0.0, 0.0, 0.0, 0.0, 0.0, 0.0, 0.1, 0.0, 0.0, 0.0, 0.0, 0.0, 0.0, 0.1, 0.0, 0.5, 0.05, 0.0, 0.0, 0.0, 5.0]
twist: 
  twist: 
    linear: 
      x: 0.0
      y: 0.0
      z: 0.0
    angular: 
      x: 0.0
      y: 0.0
      z: 0.0
  covariance: [0.05, 0.05, 0.0, 0.0, 0.0, 0.5, 0.05, 0.05, 0.0, 0.0, 0.0, 0.05, 0.0, 0.0, 0.1, 0.0, 0.0, 0.0, 0.0, 0.0, 0.0, 0.1, 0.0, 0.0, 0.0, 0.0, 0.0, 0.0, 0.1, 0.0, 0.5, 0.05, 0.0, 0.0, 0.0, 5.0]
---
header: 
  seq: 15
  stamp: 
    secs: 1661451405
    nsecs: 294023275
  frame_id: "chassis_init"
child_frame_id: "wheel_odom"
pose: 
  pose: 
    position: 
      x: -0.00014811799058212253
      y: 7.568558644253246e-08
      z: 0.0
    orientation: 
      x: 0.0
      y: 0.0
      z: 0.00017034857584005618
      w: 0.9999999854906813
  covariance: [0.05, 0.05, 0.0, 0.0, 0.0, 0.5, 0.05, 0.05, 0.0, 0.0, 0.0, 0.05, 0.0, 0.0, 0.1, 0.0, 0.0, 0.0, 0.0, 0.0, 0.0, 0.1, 0.0, 0.0, 0.0, 0.0, 0.0, 0.0, 0.1, 0.0, 0.5, 0.05, 0.0, 0.0, 0.0, 5.0]
twist: 
  twist: 
    linear: 
      x: 0.0
      y: 0.0
      z: 0.0
    angular: 
      x: 0.0
      y: 0.0
      z: 0.0
  covariance: [0.05, 0.05, 0.0, 0.0, 0.0, 0.5, 0.05, 0.05, 0.0, 0.0, 0.0, 0.05, 0.0, 0.0, 0.1, 0.0, 0.0, 0.0, 0.0, 0.0, 0.0, 0.1, 0.0, 0.0, 0.0, 0.0, 0.0, 0.0, 0.1, 0.0, 0.5, 0.05, 0.0, 0.0, 0.0, 5.0]
---
header: 
  seq: 16
  stamp: 
    secs: 1661451405
    nsecs: 493991613
  frame_id: "chassis_init"
child_frame_id: "wheel_odom"
pose: 
  pose: 
    position: 
      x: -0.00014811799058212253
      y: 7.568558644253246e-08
      z: 0.0
    orientation: 
      x: 0.0
      y: 0.0
      z: 0.00017034857584005618
      w: 0.9999999854906813
  covariance: [0.05, 0.05, 0.0, 0.0, 0.0, 0.5, 0.05, 0.05, 0.0, 0.0, 0.0, 0.05, 0.0, 0.0, 0.1, 0.0, 0.0, 0.0, 0.0, 0.0, 0.0, 0.1, 0.0, 0.0, 0.0, 0.0, 0.0, 0.0, 0.1, 0.0, 0.5, 0.05, 0.0, 0.0, 0.0, 5.0]
twist: 
  twist: 
    linear: 
      x: 0.0
      y: 0.0
      z: 0.0
    angular: 
      x: 0.0
      y: 0.0
      z: 0.0
  covariance: [0.05, 0.05, 0.0, 0.0, 0.0, 0.5, 0.05, 0.05, 0.0, 0.0, 0.0, 0.05, 0.0, 0.0, 0.1, 0.0, 0.0, 0.0, 0.0, 0.0, 0.0, 0.1, 0.0, 0.0, 0.0, 0.0, 0.0, 0.0, 0.1, 0.0, 0.5, 0.05, 0.0, 0.0, 0.0, 5.0]
---
header: 
  seq: 17
  stamp: 
    secs: 1661451405
    nsecs: 693990230
  frame_id: "chassis_init"
child_frame_id: "wheel_odom"
pose: 
  pose: 
    position: 
      x: -0.00014811799058212253
      y: 7.568558644253246e-08
      z: 0.0
    orientation: 
      x: 0.0
      y: 0.0
      z: 0.00017034857584005618
      w: 0.9999999854906813
  covariance: [0.05, 0.05, 0.0, 0.0, 0.0, 0.5, 0.05, 0.05, 0.0, 0.0, 0.0, 0.05, 0.0, 0.0, 0.1, 0.0, 0.0, 0.0, 0.0, 0.0, 0.0, 0.1, 0.0, 0.0, 0.0, 0.0, 0.0, 0.0, 0.1, 0.0, 0.5, 0.05, 0.0, 0.0, 0.0, 5.0]
twist: 
  twist: 
    linear: 
      x: 0.0
      y: 0.0
      z: 0.0
    angular: 
      x: 0.0
      y: 0.0
      z: 0.0
  covariance: [0.05, 0.05, 0.0, 0.0, 0.0, 0.5, 0.05, 0.05, 0.0, 0.0, 0.0, 0.05, 0.0, 0.0, 0.1, 0.0, 0.0, 0.0, 0.0, 0.0, 0.0, 0.1, 0.0, 0.0, 0.0, 0.0, 0.0, 0.0, 0.1, 0.0, 0.5, 0.05, 0.0, 0.0, 0.0, 5.0]
---
header: 
  seq: 18
  stamp: 
    secs: 1661451405
    nsecs: 894033193
  frame_id: "chassis_init"
child_frame_id: "wheel_odom"
pose: 
  pose: 
    position: 
      x: -0.00014811799058212253
      y: 7.568558644253246e-08
      z: 0.0
    orientation: 
      x: 0.0
      y: 0.0
      z: 0.00017034857584005618
      w: 0.9999999854906813
  covariance: [0.05, 0.05, 0.0, 0.0, 0.0, 0.5, 0.05, 0.05, 0.0, 0.0, 0.0, 0.05, 0.0, 0.0, 0.1, 0.0, 0.0, 0.0, 0.0, 0.0, 0.0, 0.1, 0.0, 0.0, 0.0, 0.0, 0.0, 0.0, 0.1, 0.0, 0.5, 0.05, 0.0, 0.0, 0.0, 5.0]
twist: 
  twist: 
    linear: 
      x: 0.0
      y: 0.0
      z: 0.0
    angular: 
      x: 0.0
      y: 0.0
      z: 0.0
  covariance: [0.05, 0.05, 0.0, 0.0, 0.0, 0.5, 0.05, 0.05, 0.0, 0.0, 0.0, 0.05, 0.0, 0.0, 0.1, 0.0, 0.0, 0.0, 0.0, 0.0, 0.0, 0.1, 0.0, 0.0, 0.0, 0.0, 0.0, 0.0, 0.1, 0.0, 0.5, 0.05, 0.0, 0.0, 0.0, 5.0]
---
header: 
  seq: 19
  stamp: 
    secs: 1661451406
    nsecs:  94023942
  frame_id: "chassis_init"
child_frame_id: "wheel_odom"
pose: 
  pose: 
    position: 
      x: -0.00014811799058212253
      y: 7.568558644253246e-08
      z: 0.0
    orientation: 
      x: 0.0
      y: 0.0
      z: 0.00017034857584005618
      w: 0.9999999854906813
  covariance: [0.05, 0.05, 0.0, 0.0, 0.0, 0.5, 0.05, 0.05, 0.0, 0.0, 0.0, 0.05, 0.0, 0.0, 0.1, 0.0, 0.0, 0.0, 0.0, 0.0, 0.0, 0.1, 0.0, 0.0, 0.0, 0.0, 0.0, 0.0, 0.1, 0.0, 0.5, 0.05, 0.0, 0.0, 0.0, 5.0]
twist: 
  twist: 
    linear: 
      x: 0.0
      y: 0.0
      z: 0.0
    angular: 
      x: 0.0
      y: 0.0
      z: 0.0
  covariance: [0.05, 0.05, 0.0, 0.0, 0.0, 0.5, 0.05, 0.05, 0.0, 0.0, 0.0, 0.05, 0.0, 0.0, 0.1, 0.0, 0.0, 0.0, 0.0, 0.0, 0.0, 0.1, 0.0, 0.0, 0.0, 0.0, 0.0, 0.0, 0.1, 0.0, 0.5, 0.05, 0.0, 0.0, 0.0, 5.0]
---
header: 
  seq: 20
  stamp: 
    secs: 1661451406
    nsecs: 294075012
  frame_id: "chassis_init"
child_frame_id: "wheel_odom"
pose: 
  pose: 
    position: 
      x: -0.00014811799058212253
      y: 7.568558644253246e-08
      z: 0.0
    orientation: 
      x: 0.0
      y: 0.0
      z: 0.00017034857584005618
      w: 0.9999999854906813
  covariance: [0.05, 0.05, 0.0, 0.0, 0.0, 0.5, 0.05, 0.05, 0.0, 0.0, 0.0, 0.05, 0.0, 0.0, 0.1, 0.0, 0.0, 0.0, 0.0, 0.0, 0.0, 0.1, 0.0, 0.0, 0.0, 0.0, 0.0, 0.0, 0.1, 0.0, 0.5, 0.05, 0.0, 0.0, 0.0, 5.0]
twist: 
  twist: 
    linear: 
      x: 0.0
      y: 0.0
      z: 0.0
    angular: 
      x: 0.0
      y: 0.0
      z: 0.0
  covariance: [0.05, 0.05, 0.0, 0.0, 0.0, 0.5, 0.05, 0.05, 0.0, 0.0, 0.0, 0.05, 0.0, 0.0, 0.1, 0.0, 0.0, 0.0, 0.0, 0.0, 0.0, 0.1, 0.0, 0.0, 0.0, 0.0, 0.0, 0.0, 0.1, 0.0, 0.5, 0.05, 0.0, 0.0, 0.0, 5.0]
---
header: 
  seq: 21
  stamp: 
    secs: 1661451406
    nsecs: 494029045
  frame_id: "chassis_init"
child_frame_id: "wheel_odom"
pose: 
  pose: 
    position: 
      x: -0.00014811799058212253
      y: 7.568558644253246e-08
      z: 0.0
    orientation: 
      x: 0.0
      y: 0.0
      z: 0.00017034857584005618
      w: 0.9999999854906813
  covariance: [0.05, 0.05, 0.0, 0.0, 0.0, 0.5, 0.05, 0.05, 0.0, 0.0, 0.0, 0.05, 0.0, 0.0, 0.1, 0.0, 0.0, 0.0, 0.0, 0.0, 0.0, 0.1, 0.0, 0.0, 0.0, 0.0, 0.0, 0.0, 0.1, 0.0, 0.5, 0.05, 0.0, 0.0, 0.0, 5.0]
twist: 
  twist: 
    linear: 
      x: 0.0
      y: 0.0
      z: 0.0
    angular: 
      x: 0.0
      y: 0.0
      z: 0.0
  covariance: [0.05, 0.05, 0.0, 0.0, 0.0, 0.5, 0.05, 0.05, 0.0, 0.0, 0.0, 0.05, 0.0, 0.0, 0.1, 0.0, 0.0, 0.0, 0.0, 0.0, 0.0, 0.1, 0.0, 0.0, 0.0, 0.0, 0.0, 0.0, 0.1, 0.0, 0.5, 0.05, 0.0, 0.0, 0.0, 5.0]
---
header: 
  seq: 22
  stamp: 
    secs: 1661451406
    nsecs: 694072008
  frame_id: "chassis_init"
child_frame_id: "wheel_odom"
pose: 
  pose: 
    position: 
      x: -0.00014811799058212253
      y: 7.568558644253246e-08
      z: 0.0
    orientation: 
      x: 0.0
      y: 0.0
      z: 0.00017034857584005618
      w: 0.9999999854906813
  covariance: [0.05, 0.05, 0.0, 0.0, 0.0, 0.5, 0.05, 0.05, 0.0, 0.0, 0.0, 0.05, 0.0, 0.0, 0.1, 0.0, 0.0, 0.0, 0.0, 0.0, 0.0, 0.1, 0.0, 0.0, 0.0, 0.0, 0.0, 0.0, 0.1, 0.0, 0.5, 0.05, 0.0, 0.0, 0.0, 5.0]
twist: 
  twist: 
    linear: 
      x: 0.0
      y: 0.0
      z: 0.0
    angular: 
      x: 0.0
      y: 0.0
      z: 0.0
  covariance: [0.05, 0.05, 0.0, 0.0, 0.0, 0.5, 0.05, 0.05, 0.0, 0.0, 0.0, 0.05, 0.0, 0.0, 0.1, 0.0, 0.0, 0.0, 0.0, 0.0, 0.0, 0.1, 0.0, 0.0, 0.0, 0.0, 0.0, 0.0, 0.1, 0.0, 0.5, 0.05, 0.0, 0.0, 0.0, 5.0]
---
header: 
  seq: 23
  stamp: 
    secs: 1661451406
    nsecs: 894011259
  frame_id: "chassis_init"
child_frame_id: "wheel_odom"
pose: 
  pose: 
    position: 
      x: -0.00014811799058212253
      y: 7.568558644253246e-08
      z: 0.0
    orientation: 
      x: 0.0
      y: 0.0
      z: 0.00017034857584005618
      w: 0.9999999854906813
  covariance: [0.05, 0.05, 0.0, 0.0, 0.0, 0.5, 0.05, 0.05, 0.0, 0.0, 0.0, 0.05, 0.0, 0.0, 0.1, 0.0, 0.0, 0.0, 0.0, 0.0, 0.0, 0.1, 0.0, 0.0, 0.0, 0.0, 0.0, 0.0, 0.1, 0.0, 0.5, 0.05, 0.0, 0.0, 0.0, 5.0]
twist: 
  twist: 
    linear: 
      x: 0.0
      y: 0.0
      z: 0.0
    angular: 
      x: 0.0
      y: 0.0
      z: 0.0
  covariance: [0.05, 0.05, 0.0, 0.0, 0.0, 0.5, 0.05, 0.05, 0.0, 0.0, 0.0, 0.05, 0.0, 0.0, 0.1, 0.0, 0.0, 0.0, 0.0, 0.0, 0.0, 0.1, 0.0, 0.0, 0.0, 0.0, 0.0, 0.0, 0.1, 0.0, 0.5, 0.05, 0.0, 0.0, 0.0, 5.0]
---
header: 
  seq: 24
  stamp: 
    secs: 1661451407
    nsecs:  94019889
  frame_id: "chassis_init"
child_frame_id: "wheel_odom"
pose: 
  pose: 
    position: 
      x: -0.00014811799058212253
      y: 7.568558644253246e-08
      z: 0.0
    orientation: 
      x: 0.0
      y: 0.0
      z: 0.00017034857584005618
      w: 0.9999999854906813
  covariance: [0.05, 0.05, 0.0, 0.0, 0.0, 0.5, 0.05, 0.05, 0.0, 0.0, 0.0, 0.05, 0.0, 0.0, 0.1, 0.0, 0.0, 0.0, 0.0, 0.0, 0.0, 0.1, 0.0, 0.0, 0.0, 0.0, 0.0, 0.0, 0.1, 0.0, 0.5, 0.05, 0.0, 0.0, 0.0, 5.0]
twist: 
  twist: 
    linear: 
      x: 0.0
      y: 0.0
      z: 0.0
    angular: 
      x: 0.0
      y: 0.0
      z: 0.0
  covariance: [0.05, 0.05, 0.0, 0.0, 0.0, 0.5, 0.05, 0.05, 0.0, 0.0, 0.0, 0.05, 0.0, 0.0, 0.1, 0.0, 0.0, 0.0, 0.0, 0.0, 0.0, 0.1, 0.0, 0.0, 0.0, 0.0, 0.0, 0.0, 0.1, 0.0, 0.5, 0.05, 0.0, 0.0, 0.0, 5.0]
---
header: 
  seq: 25
  stamp: 
    secs: 1661451407
    nsecs: 294019937
  frame_id: "chassis_init"
child_frame_id: "wheel_odom"
pose: 
  pose: 
    position: 
      x: -0.00014811799058212253
      y: 7.568558644253246e-08
      z: 0.0
    orientation: 
      x: 0.0
      y: 0.0
      z: 0.00017034857584005618
      w: 0.9999999854906813
  covariance: [0.05, 0.05, 0.0, 0.0, 0.0, 0.5, 0.05, 0.05, 0.0, 0.0, 0.0, 0.05, 0.0, 0.0, 0.1, 0.0, 0.0, 0.0, 0.0, 0.0, 0.0, 0.1, 0.0, 0.0, 0.0, 0.0, 0.0, 0.0, 0.1, 0.0, 0.5, 0.05, 0.0, 0.0, 0.0, 5.0]
twist: 
  twist: 
    linear: 
      x: 0.0
      y: 0.0
      z: 0.0
    angular: 
      x: 0.0
      y: 0.0
      z: 0.0
  covariance: [0.05, 0.05, 0.0, 0.0, 0.0, 0.5, 0.05, 0.05, 0.0, 0.0, 0.0, 0.05, 0.0, 0.0, 0.1, 0.0, 0.0, 0.0, 0.0, 0.0, 0.0, 0.1, 0.0, 0.0, 0.0, 0.0, 0.0, 0.0, 0.1, 0.0, 0.5, 0.05, 0.0, 0.0, 0.0, 5.0]
---
header: 
  seq: 26
  stamp: 
    secs: 1661451407
    nsecs: 494041919
  frame_id: "chassis_init"
child_frame_id: "wheel_odom"
pose: 
  pose: 
    position: 
      x: -0.00014811799058212253
      y: 7.568558644253246e-08
      z: 0.0
    orientation: 
      x: 0.0
      y: 0.0
      z: 0.00017034857584005618
      w: 0.9999999854906813
  covariance: [0.05, 0.05, 0.0, 0.0, 0.0, 0.5, 0.05, 0.05, 0.0, 0.0, 0.0, 0.05, 0.0, 0.0, 0.1, 0.0, 0.0, 0.0, 0.0, 0.0, 0.0, 0.1, 0.0, 0.0, 0.0, 0.0, 0.0, 0.0, 0.1, 0.0, 0.5, 0.05, 0.0, 0.0, 0.0, 5.0]
twist: 
  twist: 
    linear: 
      x: 0.0
      y: 0.0
      z: 0.0
    angular: 
      x: 0.0
      y: 0.0
      z: 0.0
  covariance: [0.05, 0.05, 0.0, 0.0, 0.0, 0.5, 0.05, 0.05, 0.0, 0.0, 0.0, 0.05, 0.0, 0.0, 0.1, 0.0, 0.0, 0.0, 0.0, 0.0, 0.0, 0.1, 0.0, 0.0, 0.0, 0.0, 0.0, 0.0, 0.1, 0.0, 0.5, 0.05, 0.0, 0.0, 0.0, 5.0]
---
header: 
  seq: 27
  stamp: 
    secs: 1661451407
    nsecs: 694049119
  frame_id: "chassis_init"
child_frame_id: "wheel_odom"
pose: 
  pose: 
    position: 
      x: -0.00014811799058212253
      y: 7.568558644253246e-08
      z: 0.0
    orientation: 
      x: 0.0
      y: 0.0
      z: 0.00017034857584005618
      w: 0.9999999854906813
  covariance: [0.05, 0.05, 0.0, 0.0, 0.0, 0.5, 0.05, 0.05, 0.0, 0.0, 0.0, 0.05, 0.0, 0.0, 0.1, 0.0, 0.0, 0.0, 0.0, 0.0, 0.0, 0.1, 0.0, 0.0, 0.0, 0.0, 0.0, 0.0, 0.1, 0.0, 0.5, 0.05, 0.0, 0.0, 0.0, 5.0]
twist: 
  twist: 
    linear: 
      x: 0.0
      y: 0.0
      z: 0.0
    angular: 
      x: 0.0
      y: 0.0
      z: 0.0
  covariance: [0.05, 0.05, 0.0, 0.0, 0.0, 0.5, 0.05, 0.05, 0.0, 0.0, 0.0, 0.05, 0.0, 0.0, 0.1, 0.0, 0.0, 0.0, 0.0, 0.0, 0.0, 0.1, 0.0, 0.0, 0.0, 0.0, 0.0, 0.0, 0.1, 0.0, 0.5, 0.05, 0.0, 0.0, 0.0, 5.0]
---
header: 
  seq: 28
  stamp: 
    secs: 1661451407
    nsecs: 894035339
  frame_id: "chassis_init"
child_frame_id: "wheel_odom"
pose: 
  pose: 
    position: 
      x: -0.00014811799058212253
      y: 7.568558644253246e-08
      z: 0.0
    orientation: 
      x: 0.0
      y: 0.0
      z: 0.00017034857584005618
      w: 0.9999999854906813
  covariance: [0.05, 0.05, 0.0, 0.0, 0.0, 0.5, 0.05, 0.05, 0.0, 0.0, 0.0, 0.05, 0.0, 0.0, 0.1, 0.0, 0.0, 0.0, 0.0, 0.0, 0.0, 0.1, 0.0, 0.0, 0.0, 0.0, 0.0, 0.0, 0.1, 0.0, 0.5, 0.05, 0.0, 0.0, 0.0, 5.0]
twist: 
  twist: 
    linear: 
      x: 0.0
      y: 0.0
      z: 0.0
    angular: 
      x: 0.0
      y: 0.0
      z: 0.0
  covariance: [0.05, 0.05, 0.0, 0.0, 0.0, 0.5, 0.05, 0.05, 0.0, 0.0, 0.0, 0.05, 0.0, 0.0, 0.1, 0.0, 0.0, 0.0, 0.0, 0.0, 0.0, 0.1, 0.0, 0.0, 0.0, 0.0, 0.0, 0.0, 0.1, 0.0, 0.5, 0.05, 0.0, 0.0, 0.0, 5.0]
---
header: 
  seq: 29
  stamp: 
    secs: 1661451408
    nsecs:  94035863
  frame_id: "chassis_init"
child_frame_id: "wheel_odom"
pose: 
  pose: 
    position: 
      x: -0.00014811799058212253
      y: 7.568558644253246e-08
      z: 0.0
    orientation: 
      x: 0.0
      y: 0.0
      z: 0.00017034857584005618
      w: 0.9999999854906813
  covariance: [0.05, 0.05, 0.0, 0.0, 0.0, 0.5, 0.05, 0.05, 0.0, 0.0, 0.0, 0.05, 0.0, 0.0, 0.1, 0.0, 0.0, 0.0, 0.0, 0.0, 0.0, 0.1, 0.0, 0.0, 0.0, 0.0, 0.0, 0.0, 0.1, 0.0, 0.5, 0.05, 0.0, 0.0, 0.0, 5.0]
twist: 
  twist: 
    linear: 
      x: 0.0
      y: 0.0
      z: 0.0
    angular: 
      x: 0.0
      y: 0.0
      z: 0.0
  covariance: [0.05, 0.05, 0.0, 0.0, 0.0, 0.5, 0.05, 0.05, 0.0, 0.0, 0.0, 0.05, 0.0, 0.0, 0.1, 0.0, 0.0, 0.0, 0.0, 0.0, 0.0, 0.1, 0.0, 0.0, 0.0, 0.0, 0.0, 0.0, 0.1, 0.0, 0.5, 0.05, 0.0, 0.0, 0.0, 5.0]
---
header: 
  seq: 30
  stamp: 
    secs: 1661451408
    nsecs: 294032573
  frame_id: "chassis_init"
child_frame_id: "wheel_odom"
pose: 
  pose: 
    position: 
      x: -0.00014811799058212253
      y: 7.568558644253246e-08
      z: 0.0
    orientation: 
      x: 0.0
      y: 0.0
      z: 0.00017034857584005618
      w: 0.9999999854906813
  covariance: [0.05, 0.05, 0.0, 0.0, 0.0, 0.5, 0.05, 0.05, 0.0, 0.0, 0.0, 0.05, 0.0, 0.0, 0.1, 0.0, 0.0, 0.0, 0.0, 0.0, 0.0, 0.1, 0.0, 0.0, 0.0, 0.0, 0.0, 0.0, 0.1, 0.0, 0.5, 0.05, 0.0, 0.0, 0.0, 5.0]
twist: 
  twist: 
    linear: 
      x: 0.0
      y: 0.0
      z: 0.0
    angular: 
      x: 0.0
      y: 0.0
      z: 0.0
  covariance: [0.05, 0.05, 0.0, 0.0, 0.0, 0.5, 0.05, 0.05, 0.0, 0.0, 0.0, 0.05, 0.0, 0.0, 0.1, 0.0, 0.0, 0.0, 0.0, 0.0, 0.0, 0.1, 0.0, 0.0, 0.0, 0.0, 0.0, 0.0, 0.1, 0.0, 0.5, 0.05, 0.0, 0.0, 0.0, 5.0]
---
header: 
  seq: 31
  stamp: 
    secs: 1661451408
    nsecs: 494035720
  frame_id: "chassis_init"
child_frame_id: "wheel_odom"
pose: 
  pose: 
    position: 
      x: -0.00014811799058212253
      y: 7.568558644253246e-08
      z: 0.0
    orientation: 
      x: 0.0
      y: 0.0
      z: 0.00017034857584005618
      w: 0.9999999854906813
  covariance: [0.05, 0.05, 0.0, 0.0, 0.0, 0.5, 0.05, 0.05, 0.0, 0.0, 0.0, 0.05, 0.0, 0.0, 0.1, 0.0, 0.0, 0.0, 0.0, 0.0, 0.0, 0.1, 0.0, 0.0, 0.0, 0.0, 0.0, 0.0, 0.1, 0.0, 0.5, 0.05, 0.0, 0.0, 0.0, 5.0]
twist: 
  twist: 
    linear: 
      x: 0.0
      y: 0.0
      z: 0.0
    angular: 
      x: 0.0
      y: 0.0
      z: 0.0
  covariance: [0.05, 0.05, 0.0, 0.0, 0.0, 0.5, 0.05, 0.05, 0.0, 0.0, 0.0, 0.05, 0.0, 0.0, 0.1, 0.0, 0.0, 0.0, 0.0, 0.0, 0.0, 0.1, 0.0, 0.0, 0.0, 0.0, 0.0, 0.0, 0.1, 0.0, 0.5, 0.05, 0.0, 0.0, 0.0, 5.0]
---
header: 
  seq: 32
  stamp: 
    secs: 1661451408
    nsecs: 694036722
  frame_id: "chassis_init"
child_frame_id: "wheel_odom"
pose: 
  pose: 
    position: 
      x: -0.00014811799058212253
      y: 7.568558644253246e-08
      z: 0.0
    orientation: 
      x: 0.0
      y: 0.0
      z: 0.00017034857584005618
      w: 0.9999999854906813
  covariance: [0.05, 0.05, 0.0, 0.0, 0.0, 0.5, 0.05, 0.05, 0.0, 0.0, 0.0, 0.05, 0.0, 0.0, 0.1, 0.0, 0.0, 0.0, 0.0, 0.0, 0.0, 0.1, 0.0, 0.0, 0.0, 0.0, 0.0, 0.0, 0.1, 0.0, 0.5, 0.05, 0.0, 0.0, 0.0, 5.0]
twist: 
  twist: 
    linear: 
      x: 0.0
      y: 0.0
      z: 0.0
    angular: 
      x: 0.0
      y: 0.0
      z: 0.0
  covariance: [0.05, 0.05, 0.0, 0.0, 0.0, 0.5, 0.05, 0.05, 0.0, 0.0, 0.0, 0.05, 0.0, 0.0, 0.1, 0.0, 0.0, 0.0, 0.0, 0.0, 0.0, 0.1, 0.0, 0.0, 0.0, 0.0, 0.0, 0.0, 0.1, 0.0, 0.5, 0.05, 0.0, 0.0, 0.0, 5.0]
---
header: 
  seq: 33
  stamp: 
    secs: 1661451408
    nsecs: 894042968
  frame_id: "chassis_init"
child_frame_id: "wheel_odom"
pose: 
  pose: 
    position: 
      x: -0.0001110781189268249
      y: 8.830496576338508e-08
      z: 0.0
    orientation: 
      x: 0.0
      y: 0.0
      z: 0.00021291613246262605
      w: 0.99999997733336
  covariance: [0.05, 0.05, 0.0, 0.0, 0.0, 0.5, 0.05, 0.05, 0.0, 0.0, 0.0, 0.05, 0.0, 0.0, 0.1, 0.0, 0.0, 0.0, 0.0, 0.0, 0.0, 0.1, 0.0, 0.0, 0.0, 0.0, 0.0, 0.0, 0.1, 0.0, 0.5, 0.05, 0.0, 0.0, 0.0, 5.0]
twist: 
  twist: 
    linear: 
      x: 0.0001851935849044851
      y: 0.0
      z: 0.0
    angular: 
      x: 0.0
      y: 0.0
      z: 0.0004256622794346156
  covariance: [0.05, 0.05, 0.0, 0.0, 0.0, 0.5, 0.05, 0.05, 0.0, 0.0, 0.0, 0.05, 0.0, 0.0, 0.1, 0.0, 0.0, 0.0, 0.0, 0.0, 0.0, 0.1, 0.0, 0.0, 0.0, 0.0, 0.0, 0.0, 0.1, 0.0, 0.5, 0.05, 0.0, 0.0, 0.0, 5.0]
---
header: 
  seq: 34
  stamp: 
    secs: 1661451409
    nsecs:  93998432
  frame_id: "chassis_init"
child_frame_id: "wheel_odom"
pose: 
  pose: 
    position: 
      x: -7.404765319422132e-05
      y: 1.0407373392981158e-07
      z: 0.0
    orientation: 
      x: 0.0
      y: 0.0
      z: 0.0002554728804624883
      w: 0.9999999673668032
  covariance: [0.05, 0.05, 0.0, 0.0, 0.0, 0.5, 0.05, 0.05, 0.0, 0.0, 0.0, 0.05, 0.0, 0.0, 0.1, 0.0, 0.0, 0.0, 0.0, 0.0, 0.0, 0.1, 0.0, 0.0, 0.0, 0.0, 0.0, 0.0, 0.1, 0.0, 0.5, 0.05, 0.0, 0.0, 0.0, 5.0]
twist: 
  twist: 
    linear: 
      x: 0.0001851935849044851
      y: 0.0
      z: 0.0
    angular: 
      x: 0.0
      y: 0.0
      z: 0.0004256622794346156
  covariance: [0.05, 0.05, 0.0, 0.0, 0.0, 0.5, 0.05, 0.05, 0.0, 0.0, 0.0, 0.05, 0.0, 0.0, 0.1, 0.0, 0.0, 0.0, 0.0, 0.0, 0.0, 0.1, 0.0, 0.0, 0.0, 0.0, 0.0, 0.0, 0.1, 0.0, 0.5, 0.05, 0.0, 0.0, 0.0, 5.0]
---
header: 
  seq: 35
  stamp: 
    secs: 1661451409
    nsecs: 294020414
  frame_id: "chassis_init"
child_frame_id: "wheel_odom"
pose: 
  pose: 
    position: 
      x: -7.404765319422132e-05
      y: 1.0407373392981158e-07
      z: 0.0
    orientation: 
      x: 0.0
      y: 0.0
      z: 0.0002554728804624883
      w: 0.9999999673668032
  covariance: [0.05, 0.05, 0.0, 0.0, 0.0, 0.5, 0.05, 0.05, 0.0, 0.0, 0.0, 0.05, 0.0, 0.0, 0.1, 0.0, 0.0, 0.0, 0.0, 0.0, 0.0, 0.1, 0.0, 0.0, 0.0, 0.0, 0.0, 0.0, 0.1, 0.0, 0.5, 0.05, 0.0, 0.0, 0.0, 5.0]
twist: 
  twist: 
    linear: 
      x: 0.0
      y: 0.0
      z: 0.0
    angular: 
      x: 0.0
      y: 0.0
      z: 0.0
  covariance: [0.05, 0.05, 0.0, 0.0, 0.0, 0.5, 0.05, 0.05, 0.0, 0.0, 0.0, 0.05, 0.0, 0.0, 0.1, 0.0, 0.0, 0.0, 0.0, 0.0, 0.0, 0.1, 0.0, 0.0, 0.0, 0.0, 0.0, 0.0, 0.1, 0.0, 0.5, 0.05, 0.0, 0.0, 0.0, 5.0]
---
header: 
  seq: 36
  stamp: 
    secs: 1661451409
    nsecs: 494033575
  frame_id: "chassis_init"
child_frame_id: "wheel_odom"
pose: 
  pose: 
    position: 
      x: -7.404765319422132e-05
      y: 1.0407373392981158e-07
      z: 0.0
    orientation: 
      x: 0.0
      y: 0.0
      z: 0.0002554728804624883
      w: 0.9999999673668032
  covariance: [0.05, 0.05, 0.0, 0.0, 0.0, 0.5, 0.05, 0.05, 0.0, 0.0, 0.0, 0.05, 0.0, 0.0, 0.1, 0.0, 0.0, 0.0, 0.0, 0.0, 0.0, 0.1, 0.0, 0.0, 0.0, 0.0, 0.0, 0.0, 0.1, 0.0, 0.5, 0.05, 0.0, 0.0, 0.0, 5.0]
twist: 
  twist: 
    linear: 
      x: 0.0
      y: 0.0
      z: 0.0
    angular: 
      x: 0.0
      y: 0.0
      z: 0.0
  covariance: [0.05, 0.05, 0.0, 0.0, 0.0, 0.5, 0.05, 0.05, 0.0, 0.0, 0.0, 0.05, 0.0, 0.0, 0.1, 0.0, 0.0, 0.0, 0.0, 0.0, 0.0, 0.1, 0.0, 0.0, 0.0, 0.0, 0.0, 0.0, 0.1, 0.0, 0.5, 0.05, 0.0, 0.0, 0.0, 5.0]
---
header: 
  seq: 37
  stamp: 
    secs: 1661451409
    nsecs: 694049119
  frame_id: "chassis_init"
child_frame_id: "wheel_odom"
pose: 
  pose: 
    position: 
      x: -7.404765319422132e-05
      y: 1.0407373392981158e-07
      z: 0.0
    orientation: 
      x: 0.0
      y: 0.0
      z: 0.0002554728804624883
      w: 0.9999999673668032
  covariance: [0.05, 0.05, 0.0, 0.0, 0.0, 0.5, 0.05, 0.05, 0.0, 0.0, 0.0, 0.05, 0.0, 0.0, 0.1, 0.0, 0.0, 0.0, 0.0, 0.0, 0.0, 0.1, 0.0, 0.0, 0.0, 0.0, 0.0, 0.0, 0.1, 0.0, 0.5, 0.05, 0.0, 0.0, 0.0, 5.0]
twist: 
  twist: 
    linear: 
      x: 0.0
      y: 0.0
      z: 0.0
    angular: 
      x: 0.0
      y: 0.0
      z: 0.0
  covariance: [0.05, 0.05, 0.0, 0.0, 0.0, 0.5, 0.05, 0.05, 0.0, 0.0, 0.0, 0.05, 0.0, 0.0, 0.1, 0.0, 0.0, 0.0, 0.0, 0.0, 0.0, 0.1, 0.0, 0.0, 0.0, 0.0, 0.0, 0.0, 0.1, 0.0, 0.5, 0.05, 0.0, 0.0, 0.0, 5.0]
---
header: 
  seq: 38
  stamp: 
    secs: 1661451409
    nsecs: 893992662
  frame_id: "chassis_init"
child_frame_id: "wheel_odom"
pose: 
  pose: 
    position: 
      x: -7.404765319422132e-05
      y: 1.0407373392981158e-07
      z: 0.0
    orientation: 
      x: 0.0
      y: 0.0
      z: 0.0002554728804624883
      w: 0.9999999673668032
  covariance: [0.05, 0.05, 0.0, 0.0, 0.0, 0.5, 0.05, 0.05, 0.0, 0.0, 0.0, 0.05, 0.0, 0.0, 0.1, 0.0, 0.0, 0.0, 0.0, 0.0, 0.0, 0.1, 0.0, 0.0, 0.0, 0.0, 0.0, 0.0, 0.1, 0.0, 0.5, 0.05, 0.0, 0.0, 0.0, 5.0]
twist: 
  twist: 
    linear: 
      x: 0.0
      y: 0.0
      z: 0.0
    angular: 
      x: 0.0
      y: 0.0
      z: 0.0
  covariance: [0.05, 0.05, 0.0, 0.0, 0.0, 0.5, 0.05, 0.05, 0.0, 0.0, 0.0, 0.05, 0.0, 0.0, 0.1, 0.0, 0.0, 0.0, 0.0, 0.0, 0.0, 0.1, 0.0, 0.0, 0.0, 0.0, 0.0, 0.0, 0.1, 0.0, 0.5, 0.05, 0.0, 0.0, 0.0, 5.0]
---
header: 
  seq: 39
  stamp: 
    secs: 1661451410
    nsecs:  93990564
  frame_id: "chassis_init"
child_frame_id: "wheel_odom"
pose: 
  pose: 
    position: 
      x: -7.404765319422132e-05
      y: 1.0407373392981158e-07
      z: 0.0
    orientation: 
      x: 0.0
      y: 0.0
      z: 0.0002554728804624883
      w: 0.9999999673668032
  covariance: [0.05, 0.05, 0.0, 0.0, 0.0, 0.5, 0.05, 0.05, 0.0, 0.0, 0.0, 0.05, 0.0, 0.0, 0.1, 0.0, 0.0, 0.0, 0.0, 0.0, 0.0, 0.1, 0.0, 0.0, 0.0, 0.0, 0.0, 0.0, 0.1, 0.0, 0.5, 0.05, 0.0, 0.0, 0.0, 5.0]
twist: 
  twist: 
    linear: 
      x: 0.0
      y: 0.0
      z: 0.0
    angular: 
      x: 0.0
      y: 0.0
      z: 0.0
  covariance: [0.05, 0.05, 0.0, 0.0, 0.0, 0.5, 0.05, 0.05, 0.0, 0.0, 0.0, 0.05, 0.0, 0.0, 0.1, 0.0, 0.0, 0.0, 0.0, 0.0, 0.0, 0.1, 0.0, 0.0, 0.0, 0.0, 0.0, 0.0, 0.1, 0.0, 0.5, 0.05, 0.0, 0.0, 0.0, 5.0]
---
header: 
  seq: 40
  stamp: 
    secs: 1661451410
    nsecs: 293989419
  frame_id: "chassis_init"
child_frame_id: "wheel_odom"
pose: 
  pose: 
    position: 
      x: -7.404765319422132e-05
      y: 1.0407373392981158e-07
      z: 0.0
    orientation: 
      x: 0.0
      y: 0.0
      z: 0.0002554728804624883
      w: 0.9999999673668032
  covariance: [0.05, 0.05, 0.0, 0.0, 0.0, 0.5, 0.05, 0.05, 0.0, 0.0, 0.0, 0.05, 0.0, 0.0, 0.1, 0.0, 0.0, 0.0, 0.0, 0.0, 0.0, 0.1, 0.0, 0.0, 0.0, 0.0, 0.0, 0.0, 0.1, 0.0, 0.5, 0.05, 0.0, 0.0, 0.0, 5.0]
twist: 
  twist: 
    linear: 
      x: 0.0
      y: 0.0
      z: 0.0
    angular: 
      x: 0.0
      y: 0.0
      z: 0.0
  covariance: [0.05, 0.05, 0.0, 0.0, 0.0, 0.5, 0.05, 0.05, 0.0, 0.0, 0.0, 0.05, 0.0, 0.0, 0.1, 0.0, 0.0, 0.0, 0.0, 0.0, 0.0, 0.1, 0.0, 0.0, 0.0, 0.0, 0.0, 0.0, 0.1, 0.0, 0.5, 0.05, 0.0, 0.0, 0.0, 5.0]
---
header: 
  seq: 41
  stamp: 
    secs: 1661451410
    nsecs: 493989706
  frame_id: "chassis_init"
child_frame_id: "wheel_odom"
pose: 
  pose: 
    position: 
      x: -7.404765319422132e-05
      y: 1.0407373392981158e-07
      z: 0.0
    orientation: 
      x: 0.0
      y: 0.0
      z: 0.0002554728804624883
      w: 0.9999999673668032
  covariance: [0.05, 0.05, 0.0, 0.0, 0.0, 0.5, 0.05, 0.05, 0.0, 0.0, 0.0, 0.05, 0.0, 0.0, 0.1, 0.0, 0.0, 0.0, 0.0, 0.0, 0.0, 0.1, 0.0, 0.0, 0.0, 0.0, 0.0, 0.0, 0.1, 0.0, 0.5, 0.05, 0.0, 0.0, 0.0, 5.0]
twist: 
  twist: 
    linear: 
      x: 0.0
      y: 0.0
      z: 0.0
    angular: 
      x: 0.0
      y: 0.0
      z: 0.0
  covariance: [0.05, 0.05, 0.0, 0.0, 0.0, 0.5, 0.05, 0.05, 0.0, 0.0, 0.0, 0.05, 0.0, 0.0, 0.1, 0.0, 0.0, 0.0, 0.0, 0.0, 0.0, 0.1, 0.0, 0.0, 0.0, 0.0, 0.0, 0.0, 0.1, 0.0, 0.5, 0.05, 0.0, 0.0, 0.0, 5.0]
---
header: 
  seq: 42
  stamp: 
    secs: 1661451410
    nsecs: 694019079
  frame_id: "chassis_init"
child_frame_id: "wheel_odom"
pose: 
  pose: 
    position: 
      x: -7.404765319422132e-05
      y: 1.0407373392981158e-07
      z: 0.0
    orientation: 
      x: 0.0
      y: 0.0
      z: 0.0002554728804624883
      w: 0.9999999673668032
  covariance: [0.05, 0.05, 0.0, 0.0, 0.0, 0.5, 0.05, 0.05, 0.0, 0.0, 0.0, 0.05, 0.0, 0.0, 0.1, 0.0, 0.0, 0.0, 0.0, 0.0, 0.0, 0.1, 0.0, 0.0, 0.0, 0.0, 0.0, 0.0, 0.1, 0.0, 0.5, 0.05, 0.0, 0.0, 0.0, 5.0]
twist: 
  twist: 
    linear: 
      x: 0.0
      y: 0.0
      z: 0.0
    angular: 
      x: 0.0
      y: 0.0
      z: 0.0
  covariance: [0.05, 0.05, 0.0, 0.0, 0.0, 0.5, 0.05, 0.05, 0.0, 0.0, 0.0, 0.05, 0.0, 0.0, 0.1, 0.0, 0.0, 0.0, 0.0, 0.0, 0.0, 0.1, 0.0, 0.0, 0.0, 0.0, 0.0, 0.0, 0.1, 0.0, 0.5, 0.05, 0.0, 0.0, 0.0, 5.0]
---
header: 
  seq: 43
  stamp: 
    secs: 1661451410
    nsecs: 893990278
  frame_id: "chassis_init"
child_frame_id: "wheel_odom"
pose: 
  pose: 
    position: 
      x: -7.404765319422132e-05
      y: 1.0407373392981158e-07
      z: 0.0
    orientation: 
      x: 0.0
      y: 0.0
      z: 0.0002554728804624883
      w: 0.9999999673668032
  covariance: [0.05, 0.05, 0.0, 0.0, 0.0, 0.5, 0.05, 0.05, 0.0, 0.0, 0.0, 0.05, 0.0, 0.0, 0.1, 0.0, 0.0, 0.0, 0.0, 0.0, 0.0, 0.1, 0.0, 0.0, 0.0, 0.0, 0.0, 0.0, 0.1, 0.0, 0.5, 0.05, 0.0, 0.0, 0.0, 5.0]
twist: 
  twist: 
    linear: 
      x: 0.0
      y: 0.0
      z: 0.0
    angular: 
      x: 0.0
      y: 0.0
      z: 0.0
  covariance: [0.05, 0.05, 0.0, 0.0, 0.0, 0.5, 0.05, 0.05, 0.0, 0.0, 0.0, 0.05, 0.0, 0.0, 0.1, 0.0, 0.0, 0.0, 0.0, 0.0, 0.0, 0.1, 0.0, 0.0, 0.0, 0.0, 0.0, 0.0, 0.1, 0.0, 0.5, 0.05, 0.0, 0.0, 0.0, 5.0]
---
header: 
  seq: 44
  stamp: 
    secs: 1661451411
    nsecs:  93993663
  frame_id: "chassis_init"
child_frame_id: "wheel_odom"
pose: 
  pose: 
    position: 
      x: -7.404765319422132e-05
      y: 1.0407373392981158e-07
      z: 0.0
    orientation: 
      x: 0.0
      y: 0.0
      z: 0.0002554728804624883
      w: 0.9999999673668032
  covariance: [0.05, 0.05, 0.0, 0.0, 0.0, 0.5, 0.05, 0.05, 0.0, 0.0, 0.0, 0.05, 0.0, 0.0, 0.1, 0.0, 0.0, 0.0, 0.0, 0.0, 0.0, 0.1, 0.0, 0.0, 0.0, 0.0, 0.0, 0.0, 0.1, 0.0, 0.5, 0.05, 0.0, 0.0, 0.0, 5.0]
twist: 
  twist: 
    linear: 
      x: 0.0
      y: 0.0
      z: 0.0
    angular: 
      x: 0.0
      y: 0.0
      z: 0.0
  covariance: [0.05, 0.05, 0.0, 0.0, 0.0, 0.5, 0.05, 0.05, 0.0, 0.0, 0.0, 0.05, 0.0, 0.0, 0.1, 0.0, 0.0, 0.0, 0.0, 0.0, 0.0, 0.1, 0.0, 0.0, 0.0, 0.0, 0.0, 0.0, 0.1, 0.0, 0.5, 0.05, 0.0, 0.0, 0.0, 5.0]
---
header: 
  seq: 45
  stamp: 
    secs: 1661451411
    nsecs: 293994426
  frame_id: "chassis_init"
child_frame_id: "wheel_odom"
pose: 
  pose: 
    position: 
      x: -7.404765319422132e-05
      y: 1.0407373392981158e-07
      z: 0.0
    orientation: 
      x: 0.0
      y: 0.0
      z: 0.0002554728804624883
      w: 0.9999999673668032
  covariance: [0.05, 0.05, 0.0, 0.0, 0.0, 0.5, 0.05, 0.05, 0.0, 0.0, 0.0, 0.05, 0.0, 0.0, 0.1, 0.0, 0.0, 0.0, 0.0, 0.0, 0.0, 0.1, 0.0, 0.0, 0.0, 0.0, 0.0, 0.0, 0.1, 0.0, 0.5, 0.05, 0.0, 0.0, 0.0, 5.0]
twist: 
  twist: 
    linear: 
      x: 0.0
      y: 0.0
      z: 0.0
    angular: 
      x: 0.0
      y: 0.0
      z: 0.0
  covariance: [0.05, 0.05, 0.0, 0.0, 0.0, 0.5, 0.05, 0.05, 0.0, 0.0, 0.0, 0.05, 0.0, 0.0, 0.1, 0.0, 0.0, 0.0, 0.0, 0.0, 0.0, 0.1, 0.0, 0.0, 0.0, 0.0, 0.0, 0.0, 0.1, 0.0, 0.5, 0.05, 0.0, 0.0, 0.0, 5.0]
---
header: 
  seq: 46
  stamp: 
    secs: 1661451411
    nsecs: 493992328
  frame_id: "chassis_init"
child_frame_id: "wheel_odom"
pose: 
  pose: 
    position: 
      x: -7.404765319422132e-05
      y: 1.0407373392981158e-07
      z: 0.0
    orientation: 
      x: 0.0
      y: 0.0
      z: 0.0002554728804624883
      w: 0.9999999673668032
  covariance: [0.05, 0.05, 0.0, 0.0, 0.0, 0.5, 0.05, 0.05, 0.0, 0.0, 0.0, 0.05, 0.0, 0.0, 0.1, 0.0, 0.0, 0.0, 0.0, 0.0, 0.0, 0.1, 0.0, 0.0, 0.0, 0.0, 0.0, 0.0, 0.1, 0.0, 0.5, 0.05, 0.0, 0.0, 0.0, 5.0]
twist: 
  twist: 
    linear: 
      x: 0.0
      y: 0.0
      z: 0.0
    angular: 
      x: 0.0
      y: 0.0
      z: 0.0
  covariance: [0.05, 0.05, 0.0, 0.0, 0.0, 0.5, 0.05, 0.05, 0.0, 0.0, 0.0, 0.05, 0.0, 0.0, 0.1, 0.0, 0.0, 0.0, 0.0, 0.0, 0.0, 0.1, 0.0, 0.0, 0.0, 0.0, 0.0, 0.0, 0.1, 0.0, 0.5, 0.05, 0.0, 0.0, 0.0, 5.0]
---
header: 
  seq: 47
  stamp: 
    secs: 1661451411
    nsecs: 693990468
  frame_id: "chassis_init"
child_frame_id: "wheel_odom"
pose: 
  pose: 
    position: 
      x: -7.404765319422132e-05
      y: 1.0407373392981158e-07
      z: 0.0
    orientation: 
      x: 0.0
      y: 0.0
      z: 0.0002554728804624883
      w: 0.9999999673668032
  covariance: [0.05, 0.05, 0.0, 0.0, 0.0, 0.5, 0.05, 0.05, 0.0, 0.0, 0.0, 0.05, 0.0, 0.0, 0.1, 0.0, 0.0, 0.0, 0.0, 0.0, 0.0, 0.1, 0.0, 0.0, 0.0, 0.0, 0.0, 0.0, 0.1, 0.0, 0.5, 0.05, 0.0, 0.0, 0.0, 5.0]
twist: 
  twist: 
    linear: 
      x: 0.0
      y: 0.0
      z: 0.0
    angular: 
      x: 0.0
      y: 0.0
      z: 0.0
  covariance: [0.05, 0.05, 0.0, 0.0, 0.0, 0.5, 0.05, 0.05, 0.0, 0.0, 0.0, 0.05, 0.0, 0.0, 0.1, 0.0, 0.0, 0.0, 0.0, 0.0, 0.0, 0.1, 0.0, 0.0, 0.0, 0.0, 0.0, 0.0, 0.1, 0.0, 0.5, 0.05, 0.0, 0.0, 0.0, 5.0]
---
header: 
  seq: 48
  stamp: 
    secs: 1661451411
    nsecs: 893991947
  frame_id: "chassis_init"
child_frame_id: "wheel_odom"
pose: 
  pose: 
    position: 
      x: -7.404765319422132e-05
      y: 1.0407373392981158e-07
      z: 0.0
    orientation: 
      x: 0.0
      y: 0.0
      z: 0.0002554728804624883
      w: 0.9999999673668032
  covariance: [0.05, 0.05, 0.0, 0.0, 0.0, 0.5, 0.05, 0.05, 0.0, 0.0, 0.0, 0.05, 0.0, 0.0, 0.1, 0.0, 0.0, 0.0, 0.0, 0.0, 0.0, 0.1, 0.0, 0.0, 0.0, 0.0, 0.0, 0.0, 0.1, 0.0, 0.5, 0.05, 0.0, 0.0, 0.0, 5.0]
twist: 
  twist: 
    linear: 
      x: 0.0
      y: 0.0
      z: 0.0
    angular: 
      x: 0.0
      y: 0.0
      z: 0.0
  covariance: [0.05, 0.05, 0.0, 0.0, 0.0, 0.5, 0.05, 0.05, 0.0, 0.0, 0.0, 0.05, 0.0, 0.0, 0.1, 0.0, 0.0, 0.0, 0.0, 0.0, 0.0, 0.1, 0.0, 0.0, 0.0, 0.0, 0.0, 0.0, 0.1, 0.0, 0.5, 0.05, 0.0, 0.0, 0.0, 5.0]
---
header: 
  seq: 49
  stamp: 
    secs: 1661451412
    nsecs:  94061851
  frame_id: "chassis_init"
child_frame_id: "wheel_odom"
pose: 
  pose: 
    position: 
      x: -7.404765319422132e-05
      y: 1.0407373392981158e-07
      z: 0.0
    orientation: 
      x: 0.0
      y: 0.0
      z: 0.0002554728804624883
      w: 0.9999999673668032
  covariance: [0.05, 0.05, 0.0, 0.0, 0.0, 0.5, 0.05, 0.05, 0.0, 0.0, 0.0, 0.05, 0.0, 0.0, 0.1, 0.0, 0.0, 0.0, 0.0, 0.0, 0.0, 0.1, 0.0, 0.0, 0.0, 0.0, 0.0, 0.0, 0.1, 0.0, 0.5, 0.05, 0.0, 0.0, 0.0, 5.0]
twist: 
  twist: 
    linear: 
      x: 0.0
      y: 0.0
      z: 0.0
    angular: 
      x: 0.0
      y: 0.0
      z: 0.0
  covariance: [0.05, 0.05, 0.0, 0.0, 0.0, 0.5, 0.05, 0.05, 0.0, 0.0, 0.0, 0.05, 0.0, 0.0, 0.1, 0.0, 0.0, 0.0, 0.0, 0.0, 0.0, 0.1, 0.0, 0.0, 0.0, 0.0, 0.0, 0.0, 0.1, 0.0, 0.5, 0.05, 0.0, 0.0, 0.0, 5.0]
---
header: 
  seq: 50
  stamp: 
    secs: 1661451412
    nsecs: 293991804
  frame_id: "chassis_init"
child_frame_id: "wheel_odom"
pose: 
  pose: 
    position: 
      x: -7.404765319422132e-05
      y: 1.0407373392981158e-07
      z: 0.0
    orientation: 
      x: 0.0
      y: 0.0
      z: 0.0002554728804624883
      w: 0.9999999673668032
  covariance: [0.05, 0.05, 0.0, 0.0, 0.0, 0.5, 0.05, 0.05, 0.0, 0.0, 0.0, 0.05, 0.0, 0.0, 0.1, 0.0, 0.0, 0.0, 0.0, 0.0, 0.0, 0.1, 0.0, 0.0, 0.0, 0.0, 0.0, 0.0, 0.1, 0.0, 0.5, 0.05, 0.0, 0.0, 0.0, 5.0]
twist: 
  twist: 
    linear: 
      x: 0.0
      y: 0.0
      z: 0.0
    angular: 
      x: 0.0
      y: 0.0
      z: 0.0
  covariance: [0.05, 0.05, 0.0, 0.0, 0.0, 0.5, 0.05, 0.05, 0.0, 0.0, 0.0, 0.05, 0.0, 0.0, 0.1, 0.0, 0.0, 0.0, 0.0, 0.0, 0.0, 0.1, 0.0, 0.0, 0.0, 0.0, 0.0, 0.0, 0.1, 0.0, 0.5, 0.05, 0.0, 0.0, 0.0, 5.0]
---
header: 
  seq: 51
  stamp: 
    secs: 1661451412
    nsecs: 494048595
  frame_id: "chassis_init"
child_frame_id: "wheel_odom"
pose: 
  pose: 
    position: 
      x: -7.404765319422132e-05
      y: 1.0407373392981158e-07
      z: 0.0
    orientation: 
      x: 0.0
      y: 0.0
      z: 0.0002554728804624883
      w: 0.9999999673668032
  covariance: [0.05, 0.05, 0.0, 0.0, 0.0, 0.5, 0.05, 0.05, 0.0, 0.0, 0.0, 0.05, 0.0, 0.0, 0.1, 0.0, 0.0, 0.0, 0.0, 0.0, 0.0, 0.1, 0.0, 0.0, 0.0, 0.0, 0.0, 0.0, 0.1, 0.0, 0.5, 0.05, 0.0, 0.0, 0.0, 5.0]
twist: 
  twist: 
    linear: 
      x: 0.0
      y: 0.0
      z: 0.0
    angular: 
      x: 0.0
      y: 0.0
      z: 0.0
  covariance: [0.05, 0.05, 0.0, 0.0, 0.0, 0.5, 0.05, 0.05, 0.0, 0.0, 0.0, 0.05, 0.0, 0.0, 0.1, 0.0, 0.0, 0.0, 0.0, 0.0, 0.0, 0.1, 0.0, 0.0, 0.0, 0.0, 0.0, 0.0, 0.1, 0.0, 0.5, 0.05, 0.0, 0.0, 0.0, 5.0]
---
header: 
  seq: 52
  stamp: 
    secs: 1661451412
    nsecs: 694014549
  frame_id: "chassis_init"
child_frame_id: "wheel_odom"
pose: 
  pose: 
    position: 
      x: -7.404765319422132e-05
      y: 1.0407373392981158e-07
      z: 0.0
    orientation: 
      x: 0.0
      y: 0.0
      z: 0.0002554728804624883
      w: 0.9999999673668032
  covariance: [0.05, 0.05, 0.0, 0.0, 0.0, 0.5, 0.05, 0.05, 0.0, 0.0, 0.0, 0.05, 0.0, 0.0, 0.1, 0.0, 0.0, 0.0, 0.0, 0.0, 0.0, 0.1, 0.0, 0.0, 0.0, 0.0, 0.0, 0.0, 0.1, 0.0, 0.5, 0.05, 0.0, 0.0, 0.0, 5.0]
twist: 
  twist: 
    linear: 
      x: 0.0
      y: 0.0
      z: 0.0
    angular: 
      x: 0.0
      y: 0.0
      z: 0.0
  covariance: [0.05, 0.05, 0.0, 0.0, 0.0, 0.5, 0.05, 0.05, 0.0, 0.0, 0.0, 0.05, 0.0, 0.0, 0.1, 0.0, 0.0, 0.0, 0.0, 0.0, 0.0, 0.1, 0.0, 0.0, 0.0, 0.0, 0.0, 0.0, 0.1, 0.0, 0.5, 0.05, 0.0, 0.0, 0.0, 5.0]
---
header: 
  seq: 53
  stamp: 
    secs: 1661451412
    nsecs: 893991231
  frame_id: "chassis_init"
child_frame_id: "wheel_odom"
pose: 
  pose: 
    position: 
      x: -7.404765319422132e-05
      y: 1.0407373392981158e-07
      z: 0.0
    orientation: 
      x: 0.0
      y: 0.0
      z: 0.0002554728804624883
      w: 0.9999999673668032
  covariance: [0.05, 0.05, 0.0, 0.0, 0.0, 0.5, 0.05, 0.05, 0.0, 0.0, 0.0, 0.05, 0.0, 0.0, 0.1, 0.0, 0.0, 0.0, 0.0, 0.0, 0.0, 0.1, 0.0, 0.0, 0.0, 0.0, 0.0, 0.0, 0.1, 0.0, 0.5, 0.05, 0.0, 0.0, 0.0, 5.0]
twist: 
  twist: 
    linear: 
      x: 0.0
      y: 0.0
      z: 0.0
    angular: 
      x: 0.0
      y: 0.0
      z: 0.0
  covariance: [0.05, 0.05, 0.0, 0.0, 0.0, 0.5, 0.05, 0.05, 0.0, 0.0, 0.0, 0.05, 0.0, 0.0, 0.1, 0.0, 0.0, 0.0, 0.0, 0.0, 0.0, 0.1, 0.0, 0.0, 0.0, 0.0, 0.0, 0.0, 0.1, 0.0, 0.5, 0.05, 0.0, 0.0, 0.0, 5.0]
---
header: 
  seq: 54
  stamp: 
    secs: 1661451413
    nsecs:  93993425
  frame_id: "chassis_init"
child_frame_id: "wheel_odom"
pose: 
  pose: 
    position: 
      x: -7.404765319422132e-05
      y: 1.0407373392981158e-07
      z: 0.0
    orientation: 
      x: 0.0
      y: 0.0
      z: 0.0002554728804624883
      w: 0.9999999673668032
  covariance: [0.05, 0.05, 0.0, 0.0, 0.0, 0.5, 0.05, 0.05, 0.0, 0.0, 0.0, 0.05, 0.0, 0.0, 0.1, 0.0, 0.0, 0.0, 0.0, 0.0, 0.0, 0.1, 0.0, 0.0, 0.0, 0.0, 0.0, 0.0, 0.1, 0.0, 0.5, 0.05, 0.0, 0.0, 0.0, 5.0]
twist: 
  twist: 
    linear: 
      x: 0.0
      y: 0.0
      z: 0.0
    angular: 
      x: 0.0
      y: 0.0
      z: 0.0
  covariance: [0.05, 0.05, 0.0, 0.0, 0.0, 0.5, 0.05, 0.05, 0.0, 0.0, 0.0, 0.05, 0.0, 0.0, 0.1, 0.0, 0.0, 0.0, 0.0, 0.0, 0.0, 0.1, 0.0, 0.0, 0.0, 0.0, 0.0, 0.0, 0.1, 0.0, 0.5, 0.05, 0.0, 0.0, 0.0, 5.0]
---
header: 
  seq: 55
  stamp: 
    secs: 1661451413
    nsecs: 294038295
  frame_id: "chassis_init"
child_frame_id: "wheel_odom"
pose: 
  pose: 
    position: 
      x: -7.404765319422132e-05
      y: 1.0407373392981158e-07
      z: 0.0
    orientation: 
      x: 0.0
      y: 0.0
      z: 0.0002554728804624883
      w: 0.9999999673668032
  covariance: [0.05, 0.05, 0.0, 0.0, 0.0, 0.5, 0.05, 0.05, 0.0, 0.0, 0.0, 0.05, 0.0, 0.0, 0.1, 0.0, 0.0, 0.0, 0.0, 0.0, 0.0, 0.1, 0.0, 0.0, 0.0, 0.0, 0.0, 0.0, 0.1, 0.0, 0.5, 0.05, 0.0, 0.0, 0.0, 5.0]
twist: 
  twist: 
    linear: 
      x: 0.0
      y: 0.0
      z: 0.0
    angular: 
      x: 0.0
      y: 0.0
      z: 0.0
  covariance: [0.05, 0.05, 0.0, 0.0, 0.0, 0.5, 0.05, 0.05, 0.0, 0.0, 0.0, 0.05, 0.0, 0.0, 0.1, 0.0, 0.0, 0.0, 0.0, 0.0, 0.0, 0.1, 0.0, 0.0, 0.0, 0.0, 0.0, 0.0, 0.1, 0.0, 0.5, 0.05, 0.0, 0.0, 0.0, 5.0]
---
header: 
  seq: 56
  stamp: 
    secs: 1661451413
    nsecs: 494010448
  frame_id: "chassis_init"
child_frame_id: "wheel_odom"
pose: 
  pose: 
    position: 
      x: -7.404765319422132e-05
      y: 1.0407373392981158e-07
      z: 0.0
    orientation: 
      x: 0.0
      y: 0.0
      z: 0.0002554728804624883
      w: 0.9999999673668032
  covariance: [0.05, 0.05, 0.0, 0.0, 0.0, 0.5, 0.05, 0.05, 0.0, 0.0, 0.0, 0.05, 0.0, 0.0, 0.1, 0.0, 0.0, 0.0, 0.0, 0.0, 0.0, 0.1, 0.0, 0.0, 0.0, 0.0, 0.0, 0.0, 0.1, 0.0, 0.5, 0.05, 0.0, 0.0, 0.0, 5.0]
twist: 
  twist: 
    linear: 
      x: 0.0
      y: 0.0
      z: 0.0
    angular: 
      x: 0.0
      y: 0.0
      z: 0.0
  covariance: [0.05, 0.05, 0.0, 0.0, 0.0, 0.5, 0.05, 0.05, 0.0, 0.0, 0.0, 0.05, 0.0, 0.0, 0.1, 0.0, 0.0, 0.0, 0.0, 0.0, 0.0, 0.1, 0.0, 0.0, 0.0, 0.0, 0.0, 0.0, 0.1, 0.0, 0.5, 0.05, 0.0, 0.0, 0.0, 5.0]
---
header: 
  seq: 57
  stamp: 
    secs: 1661451413
    nsecs: 693990707
  frame_id: "chassis_init"
child_frame_id: "wheel_odom"
pose: 
  pose: 
    position: 
      x: -7.404765319422132e-05
      y: 1.0407373392981158e-07
      z: 0.0
    orientation: 
      x: 0.0
      y: 0.0
      z: 0.0002554728804624883
      w: 0.9999999673668032
  covariance: [0.05, 0.05, 0.0, 0.0, 0.0, 0.5, 0.05, 0.05, 0.0, 0.0, 0.0, 0.05, 0.0, 0.0, 0.1, 0.0, 0.0, 0.0, 0.0, 0.0, 0.0, 0.1, 0.0, 0.0, 0.0, 0.0, 0.0, 0.0, 0.1, 0.0, 0.5, 0.05, 0.0, 0.0, 0.0, 5.0]
twist: 
  twist: 
    linear: 
      x: 0.0
      y: 0.0
      z: 0.0
    angular: 
      x: 0.0
      y: 0.0
      z: 0.0
  covariance: [0.05, 0.05, 0.0, 0.0, 0.0, 0.5, 0.05, 0.05, 0.0, 0.0, 0.0, 0.05, 0.0, 0.0, 0.1, 0.0, 0.0, 0.0, 0.0, 0.0, 0.0, 0.1, 0.0, 0.0, 0.0, 0.0, 0.0, 0.0, 0.1, 0.0, 0.5, 0.05, 0.0, 0.0, 0.0, 5.0]
---
header: 
  seq: 58
  stamp: 
    secs: 1661451413
    nsecs: 894037246
  frame_id: "chassis_init"
child_frame_id: "wheel_odom"
pose: 
  pose: 
    position: 
      x: -3.7000322268180476e-05
      y: 1.230029124732158e-07
      z: 0.0
    orientation: 
      x: 0.0
      y: 0.0
      z: 0.00029804901178581407
      w: 0.9999999555833923
  covariance: [0.05, 0.05, 0.0, 0.0, 0.0, 0.5, 0.05, 0.05, 0.0, 0.0, 0.0, 0.05, 0.0, 0.0, 0.1, 0.0, 0.0, 0.0, 0.0, 0.0, 0.0, 0.1, 0.0, 0.0, 0.0, 0.0, 0.0, 0.0, 0.1, 0.0, 0.5, 0.05, 0.0, 0.0, 0.0, 5.0]
twist: 
  twist: 
    linear: 
      x: 0.0001851935849044851
      y: 0.0
      z: 0.0
    angular: 
      x: 0.0
      y: 0.0
      z: 0.0004256622794346156
  covariance: [0.05, 0.05, 0.0, 0.0, 0.0, 0.5, 0.05, 0.05, 0.0, 0.0, 0.0, 0.05, 0.0, 0.0, 0.1, 0.0, 0.0, 0.0, 0.0, 0.0, 0.0, 0.1, 0.0, 0.0, 0.0, 0.0, 0.0, 0.0, 0.1, 0.0, 0.5, 0.05, 0.0, 0.0, 0.0, 5.0]
---
header: 
  seq: 59
  stamp: 
    secs: 1661451414
    nsecs:  93990087
  frame_id: "chassis_init"
child_frame_id: "wheel_odom"
pose: 
  pose: 
    position: 
      x: -3.7000322268180476e-05
      y: 1.230029124732158e-07
      z: 0.0
    orientation: 
      x: 0.0
      y: 0.0
      z: 0.00029804901178581407
      w: 0.9999999555833923
  covariance: [0.05, 0.05, 0.0, 0.0, 0.0, 0.5, 0.05, 0.05, 0.0, 0.0, 0.0, 0.05, 0.0, 0.0, 0.1, 0.0, 0.0, 0.0, 0.0, 0.0, 0.0, 0.1, 0.0, 0.0, 0.0, 0.0, 0.0, 0.0, 0.1, 0.0, 0.5, 0.05, 0.0, 0.0, 0.0, 5.0]
twist: 
  twist: 
    linear: 
      x: 0.0
      y: 0.0
      z: 0.0
    angular: 
      x: 0.0
      y: 0.0
      z: 0.0
  covariance: [0.05, 0.05, 0.0, 0.0, 0.0, 0.5, 0.05, 0.05, 0.0, 0.0, 0.0, 0.05, 0.0, 0.0, 0.1, 0.0, 0.0, 0.0, 0.0, 0.0, 0.0, 0.1, 0.0, 0.0, 0.0, 0.0, 0.0, 0.0, 0.1, 0.0, 0.5, 0.05, 0.0, 0.0, 0.0, 5.0]
---
header: 
  seq: 60
  stamp: 
    secs: 1661451414
    nsecs: 294036865
  frame_id: "chassis_init"
child_frame_id: "wheel_odom"
pose: 
  pose: 
    position: 
      x: 4.705106526804335e-08
      y: 1.4508678143847638e-07
      z: 0.0
    orientation: 
      x: 0.0
      y: 0.0
      z: 0.00034062519331175327
      w: 0.9999999419872372
  covariance: [0.05, 0.05, 0.0, 0.0, 0.0, 0.5, 0.05, 0.05, 0.0, 0.0, 0.0, 0.05, 0.0, 0.0, 0.1, 0.0, 0.0, 0.0, 0.0, 0.0, 0.0, 0.1, 0.0, 0.0, 0.0, 0.0, 0.0, 0.0, 0.1, 0.0, 0.5, 0.05, 0.0, 0.0, 0.0, 5.0]
twist: 
  twist: 
    linear: 
      x: 0.0001851935849044851
      y: 0.0
      z: 0.0
    angular: 
      x: 0.0
      y: 0.0
      z: 0.0004256622794346156
  covariance: [0.05, 0.05, 0.0, 0.0, 0.0, 0.5, 0.05, 0.05, 0.0, 0.0, 0.0, 0.05, 0.0, 0.0, 0.1, 0.0, 0.0, 0.0, 0.0, 0.0, 0.0, 0.1, 0.0, 0.0, 0.0, 0.0, 0.0, 0.0, 0.1, 0.0, 0.5, 0.05, 0.0, 0.0, 0.0, 5.0]
---
header: 
  seq: 61
  stamp: 
    secs: 1661451414
    nsecs: 494055986
  frame_id: "chassis_init"
child_frame_id: "wheel_odom"
pose: 
  pose: 
    position: 
      x: 4.705106526804335e-08
      y: 1.4508678143847638e-07
      z: 0.0
    orientation: 
      x: 0.0
      y: 0.0
      z: 0.00034062519331175327
      w: 0.9999999419872372
  covariance: [0.05, 0.05, 0.0, 0.0, 0.0, 0.5, 0.05, 0.05, 0.0, 0.0, 0.0, 0.05, 0.0, 0.0, 0.1, 0.0, 0.0, 0.0, 0.0, 0.0, 0.0, 0.1, 0.0, 0.0, 0.0, 0.0, 0.0, 0.0, 0.1, 0.0, 0.5, 0.05, 0.0, 0.0, 0.0, 5.0]
twist: 
  twist: 
    linear: 
      x: 0.0
      y: 0.0
      z: 0.0
    angular: 
      x: 0.0
      y: 0.0
      z: 0.0
  covariance: [0.05, 0.05, 0.0, 0.0, 0.0, 0.5, 0.05, 0.05, 0.0, 0.0, 0.0, 0.05, 0.0, 0.0, 0.1, 0.0, 0.0, 0.0, 0.0, 0.0, 0.0, 0.1, 0.0, 0.0, 0.0, 0.0, 0.0, 0.0, 0.1, 0.0, 0.5, 0.05, 0.0, 0.0, 0.0, 5.0]
---
header: 
  seq: 62
  stamp: 
    secs: 1661451414
    nsecs: 693989038
  frame_id: "chassis_init"
child_frame_id: "wheel_odom"
pose: 
  pose: 
    position: 
      x: 4.705106526804335e-08
      y: 1.4508678143847638e-07
      z: 0.0
    orientation: 
      x: 0.0
      y: 0.0
      z: 0.00034062519331175327
      w: 0.9999999419872372
  covariance: [0.05, 0.05, 0.0, 0.0, 0.0, 0.5, 0.05, 0.05, 0.0, 0.0, 0.0, 0.05, 0.0, 0.0, 0.1, 0.0, 0.0, 0.0, 0.0, 0.0, 0.0, 0.1, 0.0, 0.0, 0.0, 0.0, 0.0, 0.0, 0.1, 0.0, 0.5, 0.05, 0.0, 0.0, 0.0, 5.0]
twist: 
  twist: 
    linear: 
      x: 0.0
      y: 0.0
      z: 0.0
    angular: 
      x: 0.0
      y: 0.0
      z: 0.0
  covariance: [0.05, 0.05, 0.0, 0.0, 0.0, 0.5, 0.05, 0.05, 0.0, 0.0, 0.0, 0.05, 0.0, 0.0, 0.1, 0.0, 0.0, 0.0, 0.0, 0.0, 0.0, 0.1, 0.0, 0.0, 0.0, 0.0, 0.0, 0.0, 0.1, 0.0, 0.5, 0.05, 0.0, 0.0, 0.0, 5.0]
---
header: 
  seq: 63
  stamp: 
    secs: 1661451414
    nsecs: 894018411
  frame_id: "chassis_init"
child_frame_id: "wheel_odom"
pose: 
  pose: 
    position: 
      x: 4.705106526804335e-08
      y: 1.4508678143847638e-07
      z: 0.0
    orientation: 
      x: 0.0
      y: 0.0
      z: 0.00034062519331175327
      w: 0.9999999419872372
  covariance: [0.05, 0.05, 0.0, 0.0, 0.0, 0.5, 0.05, 0.05, 0.0, 0.0, 0.0, 0.05, 0.0, 0.0, 0.1, 0.0, 0.0, 0.0, 0.0, 0.0, 0.0, 0.1, 0.0, 0.0, 0.0, 0.0, 0.0, 0.0, 0.1, 0.0, 0.5, 0.05, 0.0, 0.0, 0.0, 5.0]
twist: 
  twist: 
    linear: 
      x: 0.0
      y: 0.0
      z: 0.0
    angular: 
      x: 0.0
      y: 0.0
      z: 0.0
  covariance: [0.05, 0.05, 0.0, 0.0, 0.0, 0.5, 0.05, 0.05, 0.0, 0.0, 0.0, 0.05, 0.0, 0.0, 0.1, 0.0, 0.0, 0.0, 0.0, 0.0, 0.0, 0.1, 0.0, 0.0, 0.0, 0.0, 0.0, 0.0, 0.1, 0.0, 0.5, 0.05, 0.0, 0.0, 0.0, 5.0]
---
header: 
  seq: 64
  stamp: 
    secs: 1661451415
    nsecs:  93989849
  frame_id: "chassis_init"
child_frame_id: "wheel_odom"
pose: 
  pose: 
    position: 
      x: 4.705106526804335e-08
      y: 1.4508678143847638e-07
      z: 0.0
    orientation: 
      x: 0.0
      y: 0.0
      z: 0.00034062519331175327
      w: 0.9999999419872372
  covariance: [0.05, 0.05, 0.0, 0.0, 0.0, 0.5, 0.05, 0.05, 0.0, 0.0, 0.0, 0.05, 0.0, 0.0, 0.1, 0.0, 0.0, 0.0, 0.0, 0.0, 0.0, 0.1, 0.0, 0.0, 0.0, 0.0, 0.0, 0.0, 0.1, 0.0, 0.5, 0.05, 0.0, 0.0, 0.0, 5.0]
twist: 
  twist: 
    linear: 
      x: 0.0
      y: 0.0
      z: 0.0
    angular: 
      x: 0.0
      y: 0.0
      z: 0.0
  covariance: [0.05, 0.05, 0.0, 0.0, 0.0, 0.5, 0.05, 0.05, 0.0, 0.0, 0.0, 0.05, 0.0, 0.0, 0.1, 0.0, 0.0, 0.0, 0.0, 0.0, 0.0, 0.1, 0.0, 0.0, 0.0, 0.0, 0.0, 0.0, 0.1, 0.0, 0.5, 0.05, 0.0, 0.0, 0.0, 5.0]
---
header: 
  seq: 65
  stamp: 
    secs: 1661451415
    nsecs: 293988466
  frame_id: "chassis_init"
child_frame_id: "wheel_odom"
pose: 
  pose: 
    position: 
      x: 4.705106526804335e-08
      y: 1.4508678143847638e-07
      z: 0.0
    orientation: 
      x: 0.0
      y: 0.0
      z: 0.00034062519331175327
      w: 0.9999999419872372
  covariance: [0.05, 0.05, 0.0, 0.0, 0.0, 0.5, 0.05, 0.05, 0.0, 0.0, 0.0, 0.05, 0.0, 0.0, 0.1, 0.0, 0.0, 0.0, 0.0, 0.0, 0.0, 0.1, 0.0, 0.0, 0.0, 0.0, 0.0, 0.0, 0.1, 0.0, 0.5, 0.05, 0.0, 0.0, 0.0, 5.0]
twist: 
  twist: 
    linear: 
      x: 0.0
      y: 0.0
      z: 0.0
    angular: 
      x: 0.0
      y: 0.0
      z: 0.0
  covariance: [0.05, 0.05, 0.0, 0.0, 0.0, 0.5, 0.05, 0.05, 0.0, 0.0, 0.0, 0.05, 0.0, 0.0, 0.1, 0.0, 0.0, 0.0, 0.0, 0.0, 0.0, 0.1, 0.0, 0.0, 0.0, 0.0, 0.0, 0.0, 0.1, 0.0, 0.5, 0.05, 0.0, 0.0, 0.0, 5.0]
---
header: 
  seq: 66
  stamp: 
    secs: 1661451415
    nsecs: 493988990
  frame_id: "chassis_init"
child_frame_id: "wheel_odom"
pose: 
  pose: 
    position: 
      x: 4.705106526804335e-08
      y: 1.4508678143847638e-07
      z: 0.0
    orientation: 
      x: 0.0
      y: 0.0
      z: 0.00034062519331175327
      w: 0.9999999419872372
  covariance: [0.05, 0.05, 0.0, 0.0, 0.0, 0.5, 0.05, 0.05, 0.0, 0.0, 0.0, 0.05, 0.0, 0.0, 0.1, 0.0, 0.0, 0.0, 0.0, 0.0, 0.0, 0.1, 0.0, 0.0, 0.0, 0.0, 0.0, 0.0, 0.1, 0.0, 0.5, 0.05, 0.0, 0.0, 0.0, 5.0]
twist: 
  twist: 
    linear: 
      x: 0.0
      y: 0.0
      z: 0.0
    angular: 
      x: 0.0
      y: 0.0
      z: 0.0
  covariance: [0.05, 0.05, 0.0, 0.0, 0.0, 0.5, 0.05, 0.05, 0.0, 0.0, 0.0, 0.05, 0.0, 0.0, 0.1, 0.0, 0.0, 0.0, 0.0, 0.0, 0.0, 0.1, 0.0, 0.0, 0.0, 0.0, 0.0, 0.0, 0.1, 0.0, 0.5, 0.05, 0.0, 0.0, 0.0, 5.0]
---
header: 
  seq: 67
  stamp: 
    secs: 1661451415
    nsecs: 693989276
  frame_id: "chassis_init"
child_frame_id: "wheel_odom"
pose: 
  pose: 
    position: 
      x: 4.705106526804335e-08
      y: 1.4508678143847638e-07
      z: 0.0
    orientation: 
      x: 0.0
      y: 0.0
      z: 0.00034062519331175327
      w: 0.9999999419872372
  covariance: [0.05, 0.05, 0.0, 0.0, 0.0, 0.5, 0.05, 0.05, 0.0, 0.0, 0.0, 0.05, 0.0, 0.0, 0.1, 0.0, 0.0, 0.0, 0.0, 0.0, 0.0, 0.1, 0.0, 0.0, 0.0, 0.0, 0.0, 0.0, 0.1, 0.0, 0.5, 0.05, 0.0, 0.0, 0.0, 5.0]
twist: 
  twist: 
    linear: 
      x: 0.0
      y: 0.0
      z: 0.0
    angular: 
      x: 0.0
      y: 0.0
      z: 0.0
  covariance: [0.05, 0.05, 0.0, 0.0, 0.0, 0.5, 0.05, 0.05, 0.0, 0.0, 0.0, 0.05, 0.0, 0.0, 0.1, 0.0, 0.0, 0.0, 0.0, 0.0, 0.0, 0.1, 0.0, 0.0, 0.0, 0.0, 0.0, 0.0, 0.1, 0.0, 0.5, 0.05, 0.0, 0.0, 0.0, 5.0]
---
header: 
  seq: 68
  stamp: 
    secs: 1661451415
    nsecs: 894049167
  frame_id: "chassis_init"
child_frame_id: "wheel_odom"
pose: 
  pose: 
    position: 
      x: 4.705106526804335e-08
      y: 1.4508678143847638e-07
      z: 0.0
    orientation: 
      x: 0.0
      y: 0.0
      z: 0.00034062519331175327
      w: 0.9999999419872372
  covariance: [0.05, 0.05, 0.0, 0.0, 0.0, 0.5, 0.05, 0.05, 0.0, 0.0, 0.0, 0.05, 0.0, 0.0, 0.1, 0.0, 0.0, 0.0, 0.0, 0.0, 0.0, 0.1, 0.0, 0.0, 0.0, 0.0, 0.0, 0.0, 0.1, 0.0, 0.5, 0.05, 0.0, 0.0, 0.0, 5.0]
twist: 
  twist: 
    linear: 
      x: 0.0
      y: 0.0
      z: 0.0
    angular: 
      x: 0.0
      y: 0.0
      z: 0.0
  covariance: [0.05, 0.05, 0.0, 0.0, 0.0, 0.5, 0.05, 0.05, 0.0, 0.0, 0.0, 0.05, 0.0, 0.0, 0.1, 0.0, 0.0, 0.0, 0.0, 0.0, 0.0, 0.1, 0.0, 0.0, 0.0, 0.0, 0.0, 0.0, 0.1, 0.0, 0.5, 0.05, 0.0, 0.0, 0.0, 5.0]
---
header: 
  seq: 69
  stamp: 
    secs: 1661451416
    nsecs:  93994379
  frame_id: "chassis_init"
child_frame_id: "wheel_odom"
pose: 
  pose: 
    position: 
      x: 4.705106526804335e-08
      y: 1.4508678143847638e-07
      z: 0.0
    orientation: 
      x: 0.0
      y: 0.0
      z: 0.00034062519331175327
      w: 0.9999999419872372
  covariance: [0.05, 0.05, 0.0, 0.0, 0.0, 0.5, 0.05, 0.05, 0.0, 0.0, 0.0, 0.05, 0.0, 0.0, 0.1, 0.0, 0.0, 0.0, 0.0, 0.0, 0.0, 0.1, 0.0, 0.0, 0.0, 0.0, 0.0, 0.0, 0.1, 0.0, 0.5, 0.05, 0.0, 0.0, 0.0, 5.0]
twist: 
  twist: 
    linear: 
      x: 0.0
      y: 0.0
      z: 0.0
    angular: 
      x: 0.0
      y: 0.0
      z: 0.0
